[
 {
   "id": 1,
   "city": "Abilene",
   "state_id": "TX",
   "lat": 32.4543,
   "lng": -99.7384,
   "population": 126356
 },
 {
   "id": 2,
   "city": "Addison",
   "state_id": "IL",
   "lat": 41.9313,
   "lng": -88.0085,
   "population": 35685
 },
 {
   "id": 3,
   "city": "Adelanto",
   "state_id": "CA",
   "lat": 34.5814,
   "lng": -117.4397,
   "population": 37960
 },
 {
   "id": 4,
   "city": "Aiken",
   "state_id": "SC",
   "lat": 33.5303,
   "lng": -81.7271,
   "population": 32014
 },
 {
   "id": 5,
   "city": "Akron",
   "state_id": "OH",
   "lat": 41.0798,
   "lng": -81.5219,
   "population": 541945
 },
 {
   "id": 6,
   "city": "Alabaster",
   "state_id": "AL",
   "lat": 33.2198,
   "lng": -86.8225,
   "population": 33417
 },
 {
   "id": 7,
   "city": "Alafaya",
   "state_id": "FL",
   "lat": 28.528,
   "lng": -81.1868,
   "population": 91531
 },
 {
   "id": 8,
   "city": "Alameda",
   "state_id": "CA",
   "lat": 37.7668,
   "lng": -122.267,
   "population": 77565
 },
 {
   "id": 9,
   "city": "Alamogordo",
   "state_id": "NM",
   "lat": 32.8837,
   "lng": -105.9625,
   "population": 30996
 },
 {
   "id": 10,
   "city": "Albany",
   "state_id": "GA",
   "lat": 31.5776,
   "lng": -84.1762,
   "population": 83447
 },
 {
   "id": 11,
   "city": "Albany",
   "state_id": "NY",
   "lat": 42.6664,
   "lng": -73.7987,
   "population": 590694
 },
 {
   "id": 12,
   "city": "Albany",
   "state_id": "OR",
   "lat": 44.6272,
   "lng": -123.0965,
   "population": 56348
 },
 {
   "id": 13,
   "city": "Albuquerque",
   "state_id": "NM",
   "lat": 35.1054,
   "lng": -106.6465,
   "population": 769986
 },
 {
   "id": 14,
   "city": "Alexandria",
   "state_id": "LA",
   "lat": 31.2923,
   "lng": -92.4702,
   "population": 77109
 },
 {
   "id": 15,
   "city": "Alexandria",
   "state_id": "VA",
   "lat": 38.8185,
   "lng": -77.0861,
   "population": 157594
 },
 {
   "id": 16,
   "city": "Alhambra",
   "state_id": "CA",
   "lat": 34.084,
   "lng": -118.1355,
   "population": 82295
 },
 {
   "id": 17,
   "city": "Aliso Viejo",
   "state_id": "CA",
   "lat": 33.5792,
   "lng": -117.7289,
   "population": 51896
 },
 {
   "id": 18,
   "city": "Allen",
   "state_id": "TX",
   "lat": 33.1088,
   "lng": -96.6735,
   "population": 105444
 },
 {
   "id": 19,
   "city": "Allentown",
   "state_id": "PA",
   "lat": 40.5961,
   "lng": -75.4756,
   "population": 627863
 },
 {
   "id": 20,
   "city": "Aloha",
   "state_id": "OR",
   "lat": 45.492,
   "lng": -122.8725,
   "population": 53532
 },
 {
   "id": 21,
   "city": "Alpharetta",
   "state_id": "GA",
   "lat": 34.0704,
   "lng": -84.2738,
   "population": 65884
 },
 {
   "id": 22,
   "city": "Altadena",
   "state_id": "CA",
   "lat": 34.1927,
   "lng": -118.1346,
   "population": 42719
 },
 {
   "id": 23,
   "city": "Altamonte Springs",
   "state_id": "FL",
   "lat": 28.6615,
   "lng": -81.3953,
   "population": 45772
 },
 {
   "id": 24,
   "city": "Alton",
   "state_id": "IL",
   "lat": 38.9037,
   "lng": -90.152,
   "population": 78729
 },
 {
   "id": 25,
   "city": "Altoona",
   "state_id": "PA",
   "lat": 40.5082,
   "lng": -78.4007,
   "population": 72348
 },
 {
   "id": 26,
   "city": "Amarillo",
   "state_id": "TX",
   "lat": 35.1984,
   "lng": -101.8316,
   "population": 205903
 },
 {
   "id": 27,
   "city": "American Fork",
   "state_id": "UT",
   "lat": 40.3783,
   "lng": -111.7953,
   "population": 33986
 },
 {
   "id": 28,
   "city": "Ames",
   "state_id": "IA",
   "lat": 42.0256,
   "lng": -93.6217,
   "population": 66729
 },
 {
   "id": 29,
   "city": "Anaheim",
   "state_id": "CA",
   "lat": 33.839,
   "lng": -117.8574,
   "population": 347111
 },
 {
   "id": 30,
   "city": "Anderson",
   "state_id": "IN",
   "lat": 40.0891,
   "lng": -85.6892,
   "population": 83875
 },
 {
   "id": 31,
   "city": "Andover",
   "state_id": "MN",
   "lat": 45.2571,
   "lng": -93.3265,
   "population": 32639
 },
 {
   "id": 32,
   "city": "Ankeny",
   "state_id": "IA",
   "lat": 41.7288,
   "lng": -93.6031,
   "population": 68392
 },
 {
   "id": 33,
   "city": "Ann Arbor",
   "state_id": "MI",
   "lat": 42.2759,
   "lng": -83.731,
   "population": 308983
 },
 {
   "id": 34,
   "city": "Annandale",
   "state_id": "VA",
   "lat": 38.8324,
   "lng": -77.196,
   "population": 42330
 },
 {
   "id": 35,
   "city": "Annapolis",
   "state_id": "MD",
   "lat": 38.9706,
   "lng": -76.5047,
   "population": 40719
 },
 {
   "id": 36,
   "city": "Anniston",
   "state_id": "AL",
   "lat": 33.6712,
   "lng": -85.8135,
   "population": 79717
 },
 {
   "id": 37,
   "city": "Antelope",
   "state_id": "CA",
   "lat": 38.7153,
   "lng": -121.361,
   "population": 47629
 },
 {
   "id": 38,
   "city": "Antioch",
   "state_id": "CA",
   "lat": 37.9787,
   "lng": -121.796,
   "population": 327216
 },
 {
   "id": 39,
   "city": "Apache Junction",
   "state_id": "AZ",
   "lat": 33.3985,
   "lng": -111.535,
   "population": 38855
 },
 {
   "id": 40,
   "city": "Apex",
   "state_id": "NC",
   "lat": 35.7237,
   "lng": -78.8743,
   "population": 65541
 },
 {
   "id": 41,
   "city": "Apopka",
   "state_id": "FL",
   "lat": 28.7015,
   "lng": -81.5316,
   "population": 55056
 },
 {
   "id": 42,
   "city": "Apple Valley",
   "state_id": "CA",
   "lat": 34.5352,
   "lng": -117.2109,
   "population": 75603
 },
 {
   "id": 43,
   "city": "Apple Valley",
   "state_id": "MN",
   "lat": 44.7457,
   "lng": -93.2004,
   "population": 55594
 },
 {
   "id": 44,
   "city": "Appleton",
   "state_id": "WI",
   "lat": 44.278,
   "lng": -88.3892,
   "population": 233947
 },
 {
   "id": 45,
   "city": "Arcadia",
   "state_id": "CA",
   "lat": 34.1342,
   "lng": -118.0373,
   "population": 56181
 },
 {
   "id": 46,
   "city": "Arden-Arcade",
   "state_id": "CA",
   "lat": 38.6017,
   "lng": -121.3845,
   "population": 96076
 },
 {
   "id": 47,
   "city": "Arlington",
   "state_id": "TX",
   "lat": 32.6998,
   "lng": -97.125,
   "population": 393469
 },
 {
   "id": 48,
   "city": "Arlington",
   "state_id": "VA",
   "lat": 38.8786,
   "lng": -77.1011,
   "population": 235845
 },
 {
   "id": 49,
   "city": "Arlington Heights",
   "state_id": "IL",
   "lat": 42.0955,
   "lng": -87.9826,
   "population": 76794
 },
 {
   "id": 50,
   "city": "Arvada",
   "state_id": "CO",
   "lat": 39.832,
   "lng": -105.151,
   "population": 123066
 },
 {
   "id": 51,
   "city": "Ashburn",
   "state_id": "VA",
   "lat": 39.0277,
   "lng": -77.4714,
   "population": 45479
 },
 {
   "id": 52,
   "city": "Asheville",
   "state_id": "NC",
   "lat": 35.5707,
   "lng": -82.5537,
   "population": 294013
 },
 {
   "id": 53,
   "city": "Aspen Hill",
   "state_id": "MD",
   "lat": 39.0927,
   "lng": -77.0826,
   "population": 54262
 },
 {
   "id": 54,
   "city": "Atascocita",
   "state_id": "TX",
   "lat": 29.9777,
   "lng": -95.1953,
   "population": 89121
 },
 {
   "id": 55,
   "city": "Athens",
   "state_id": "GA",
   "lat": 33.9508,
   "lng": -83.3689,
   "population": 143173
 },
 {
   "id": 56,
   "city": "Atlanta",
   "state_id": "GA",
   "lat": 33.7628,
   "lng": -84.422,
   "population": 5180179
 },
 {
   "id": 57,
   "city": "Atlantic City",
   "state_id": "NJ",
   "lat": 39.3797,
   "lng": -74.4527,
   "population": 38487
 },
 {
   "id": 58,
   "city": "Attleboro",
   "state_id": "MA",
   "lat": 41.9311,
   "lng": -71.295,
   "population": 46384
 },
 {
   "id": 59,
   "city": "Atwater",
   "state_id": "CA",
   "lat": 37.3529,
   "lng": -120.5959,
   "population": 31841
 },
 {
   "id": 60,
   "city": "Auburn",
   "state_id": "AL",
   "lat": 32.6087,
   "lng": -85.4903,
   "population": 105386
 },
 {
   "id": 61,
   "city": "Auburn",
   "state_id": "WA",
   "lat": 47.3039,
   "lng": -122.2108,
   "population": 85623
 },
 {
   "id": 62,
   "city": "Augusta",
   "state_id": "GA",
   "lat": 33.3645,
   "lng": -82.0708,
   "population": 437257
 },
 {
   "id": 63,
   "city": "Aurora",
   "state_id": "CO",
   "lat": 39.7083,
   "lng": -104.7237,
   "population": 387349
 },
 {
   "id": 64,
   "city": "Aurora",
   "state_id": "IL",
   "lat": 41.7638,
   "lng": -88.2902,
   "population": 181405
 },
 {
   "id": 65,
   "city": "Austin",
   "state_id": "TX",
   "lat": 30.3005,
   "lng": -97.7522,
   "population": 1905945
 },
 {
   "id": 66,
   "city": "Austintown",
   "state_id": "OH",
   "lat": 41.0932,
   "lng": -80.7405,
   "population": 30397
 },
 {
   "id": 67,
   "city": "Aventura",
   "state_id": "FL",
   "lat": 25.9566,
   "lng": -80.1371,
   "population": 39621
 },
 {
   "id": 68,
   "city": "Avondale",
   "state_id": "AZ",
   "lat": 33.3873,
   "lng": -112.3235,
   "population": 89214
 },
 {
   "id": 69,
   "city": "Azusa",
   "state_id": "CA",
   "lat": 34.1386,
   "lng": -117.9124,
   "population": 49704
 },
 {
   "id": 70,
   "city": "Bakersfield",
   "state_id": "CA",
   "lat": 35.3529,
   "lng": -119.0359,
   "population": 571992
 },
 {
   "id": 71,
   "city": "Baldwin",
   "state_id": "NY",
   "lat": 40.6511,
   "lng": -73.6075,
   "population": 33776
 },
 {
   "id": 72,
   "city": "Baldwin Park",
   "state_id": "CA",
   "lat": 34.0829,
   "lng": -117.9722,
   "population": 71692
 },
 {
   "id": 73,
   "city": "Ballwin",
   "state_id": "MO",
   "lat": 38.595,
   "lng": -90.55,
   "population": 30948
 },
 {
   "id": 74,
   "city": "Baltimore",
   "state_id": "MD",
   "lat": 39.3051,
   "lng": -76.6144,
   "population": 2196524
 },
 {
   "id": 75,
   "city": "Bangor",
   "state_id": "ME",
   "lat": 44.8323,
   "lng": -68.7906,
   "population": 31705
 },
 {
   "id": 76,
   "city": "Bartlesville",
   "state_id": "OK",
   "lat": 36.7365,
   "lng": -95.9456,
   "population": 37314
 },
 {
   "id": 77,
   "city": "Bartlett",
   "state_id": "IL",
   "lat": 41.9804,
   "lng": -88.2071,
   "population": 40829
 },
 {
   "id": 78,
   "city": "Bartlett",
   "state_id": "TN",
   "lat": 35.2337,
   "lng": -89.8195,
   "population": 57481
 },
 {
   "id": 79,
   "city": "Baton Rouge",
   "state_id": "LA",
   "lat": 30.442,
   "lng": -91.1311,
   "population": 635671
 },
 {
   "id": 80,
   "city": "Battle Creek",
   "state_id": "MI",
   "lat": 42.2985,
   "lng": -85.2296,
   "population": 78338
 },
 {
   "id": 81,
   "city": "Bay City",
   "state_id": "MI",
   "lat": 43.5902,
   "lng": -83.8887,
   "population": 65704
 },
 {
   "id": 82,
   "city": "Bay Shore",
   "state_id": "NY",
   "lat": 40.7288,
   "lng": -73.2495,
   "population": 30553
 },
 {
   "id": 83,
   "city": "Bayonne",
   "state_id": "NJ",
   "lat": 40.6668,
   "lng": -74.1158,
   "population": 70497
 },
 {
   "id": 84,
   "city": "Baytown",
   "state_id": "TX",
   "lat": 29.7587,
   "lng": -94.9671,
   "population": 84449
 },
 {
   "id": 85,
   "city": "Beaumont",
   "state_id": "CA",
   "lat": 33.9076,
   "lng": -116.9766,
   "population": 53544
 },
 {
   "id": 86,
   "city": "Beaumont",
   "state_id": "TX",
   "lat": 30.0849,
   "lng": -94.1451,
   "population": 140930
 },
 {
   "id": 87,
   "city": "Beavercreek",
   "state_id": "OH",
   "lat": 39.731,
   "lng": -84.0624,
   "population": 46576
 },
 {
   "id": 88,
   "city": "Beaverton",
   "state_id": "OR",
   "lat": 45.4779,
   "lng": -122.8168,
   "population": 97554
 },
 {
   "id": 89,
   "city": "Bedford",
   "state_id": "TX",
   "lat": 32.8464,
   "lng": -97.135,
   "population": 49455
 },
 {
   "id": 90,
   "city": "Bel Air North",
   "state_id": "MD",
   "lat": 39.5543,
   "lng": -76.3732,
   "population": 31308
 },
 {
   "id": 91,
   "city": "Bel Air South",
   "state_id": "MD",
   "lat": 39.5022,
   "lng": -76.3113,
   "population": 57109
 },
 {
   "id": 92,
   "city": "Bell",
   "state_id": "CA",
   "lat": 33.9801,
   "lng": -118.1798,
   "population": 33377
 },
 {
   "id": 93,
   "city": "Bell Gardens",
   "state_id": "CA",
   "lat": 33.9663,
   "lng": -118.155,
   "population": 39263
 },
 {
   "id": 94,
   "city": "Bella Vista",
   "state_id": "AR",
   "lat": 36.4667,
   "lng": -94.2707,
   "population": 30297
 },
 {
   "id": 95,
   "city": "Belleville",
   "state_id": "IL",
   "lat": 38.5164,
   "lng": -89.99,
   "population": 42155
 },
 {
   "id": 96,
   "city": "Bellevue",
   "state_id": "NE",
   "lat": 41.1485,
   "lng": -95.939,
   "population": 63336
 },
 {
   "id": 97,
   "city": "Bellevue",
   "state_id": "WA",
   "lat": 47.5951,
   "lng": -122.1535,
   "population": 150606
 },
 {
   "id": 98,
   "city": "Bellflower",
   "state_id": "CA",
   "lat": 33.888,
   "lng": -118.1271,
   "population": 78352
 },
 {
   "id": 99,
   "city": "Bellingham",
   "state_id": "WA",
   "lat": 48.7548,
   "lng": -122.469,
   "population": 129880
 },
 {
   "id": 100,
   "city": "Beloit",
   "state_id": "WI",
   "lat": 42.523,
   "lng": -89.0184,
   "population": 36642
 },
 {
   "id": 101,
   "city": "Bend",
   "state_id": "OR",
   "lat": 44.0563,
   "lng": -121.3095,
   "population": 111774
 },
 {
   "id": 102,
   "city": "Benton",
   "state_id": "AR",
   "lat": 34.5776,
   "lng": -92.5713,
   "population": 35318
 },
 {
   "id": 103,
   "city": "Bentonville",
   "state_id": "AR",
   "lat": 36.3547,
   "lng": -94.2305,
   "population": 54513
 },
 {
   "id": 104,
   "city": "Berkeley",
   "state_id": "CA",
   "lat": 37.8722,
   "lng": -122.276,
   "population": 121385
 },
 {
   "id": 105,
   "city": "Berwyn",
   "state_id": "IL",
   "lat": 41.8433,
   "lng": -87.7909,
   "population": 56556
 },
 {
   "id": 106,
   "city": "Bethany",
   "state_id": "OR",
   "lat": 45.5614,
   "lng": -122.837,
   "population": 30983
 },
 {
   "id": 107,
   "city": "Bethel Park",
   "state_id": "PA",
   "lat": 40.3238,
   "lng": -80.0364,
   "population": 33275
 },
 {
   "id": 108,
   "city": "Bethesda",
   "state_id": "MD",
   "lat": 38.9866,
   "lng": -77.1188,
   "population": 66316
 },
 {
   "id": 109,
   "city": "Bethlehem",
   "state_id": "PA",
   "lat": 40.6266,
   "lng": -75.3679,
   "population": 76555
 },
 {
   "id": 110,
   "city": "Bettendorf",
   "state_id": "IA",
   "lat": 41.5657,
   "lng": -90.4765,
   "population": 38997
 },
 {
   "id": 111,
   "city": "Beverly",
   "state_id": "MA",
   "lat": 42.5681,
   "lng": -70.8627,
   "population": 42414
 },
 {
   "id": 112,
   "city": "Beverly Hills",
   "state_id": "CA",
   "lat": 34.0786,
   "lng": -118.4021,
   "population": 32406
 },
 {
   "id": 113,
   "city": "Billings",
   "state_id": "MT",
   "lat": 45.7891,
   "lng": -108.5526,
   "population": 131519
 },
 {
   "id": 114,
   "city": "Biloxi",
   "state_id": "MS",
   "lat": 30.4426,
   "lng": -88.9514,
   "population": 49141
 },
 {
   "id": 115,
   "city": "Binghamton",
   "state_id": "NY",
   "lat": 42.1014,
   "lng": -75.9093,
   "population": 156375
 },
 {
   "id": 116,
   "city": "Birmingham",
   "state_id": "AL",
   "lat": 33.5279,
   "lng": -86.7971,
   "population": 782111
 },
 {
   "id": 117,
   "city": "Bismarck",
   "state_id": "ND",
   "lat": 46.8143,
   "lng": -100.7694,
   "population": 99433
 },
 {
   "id": 118,
   "city": "Blacksburg",
   "state_id": "VA",
   "lat": 37.23,
   "lng": -80.4279,
   "population": 71277
 },
 {
   "id": 119,
   "city": "Blaine",
   "state_id": "MN",
   "lat": 45.1696,
   "lng": -93.2077,
   "population": 70047
 },
 {
   "id": 120,
   "city": "Bloomington",
   "state_id": "IL",
   "lat": 40.4757,
   "lng": -88.9703,
   "population": 136524
 },
 {
   "id": 121,
   "city": "Bloomington",
   "state_id": "IN",
   "lat": 39.1637,
   "lng": -86.5257,
   "population": 108387
 },
 {
   "id": 122,
   "city": "Bloomington",
   "state_id": "MN",
   "lat": 44.8306,
   "lng": -93.3151,
   "population": 89244
 },
 {
   "id": 123,
   "city": "Blue Springs",
   "state_id": "MO",
   "lat": 39.0124,
   "lng": -94.2721,
   "population": 58720
 },
 {
   "id": 124,
   "city": "Boca Raton",
   "state_id": "FL",
   "lat": 26.3752,
   "lng": -80.108,
   "population": 97980
 },
 {
   "id": 125,
   "city": "Boise",
   "state_id": "ID",
   "lat": 43.6005,
   "lng": -116.2308,
   "population": 449776
 },
 {
   "id": 126,
   "city": "Bolingbrook",
   "state_id": "IL",
   "lat": 41.6901,
   "lng": -88.1021,
   "population": 73755
 },
 {
   "id": 127,
   "city": "Bonita Springs",
   "state_id": "FL",
   "lat": 26.3558,
   "lng": -81.7859,
   "population": 449527
 },
 {
   "id": 128,
   "city": "Bossier City",
   "state_id": "LA",
   "lat": 32.5224,
   "lng": -93.6668,
   "population": 62971
 },
 {
   "id": 129,
   "city": "Boston",
   "state_id": "MA",
   "lat": 42.3188,
   "lng": -71.0852,
   "population": 4328315
 },
 {
   "id": 130,
   "city": "Bothell",
   "state_id": "WA",
   "lat": 47.7735,
   "lng": -122.2044,
   "population": 47917
 },
 {
   "id": 131,
   "city": "Boulder",
   "state_id": "CO",
   "lat": 40.0248,
   "lng": -105.2524,
   "population": 118090
 },
 {
   "id": 132,
   "city": "Bountiful",
   "state_id": "UT",
   "lat": 40.8721,
   "lng": -111.8647,
   "population": 45353
 },
 {
   "id": 133,
   "city": "Bowie",
   "state_id": "MD",
   "lat": 38.9549,
   "lng": -76.7406,
   "population": 57922
 },
 {
   "id": 134,
   "city": "Bowling Green",
   "state_id": "KY",
   "lat": 36.9716,
   "lng": -86.4378,
   "population": 99669
 },
 {
   "id": 135,
   "city": "Bowling Green",
   "state_id": "OH",
   "lat": 41.3776,
   "lng": -83.6495,
   "population": 30157
 },
 {
   "id": 136,
   "city": "Boynton Beach",
   "state_id": "FL",
   "lat": 26.5281,
   "lng": -80.0811,
   "population": 80068
 },
 {
   "id": 137,
   "city": "Bozeman",
   "state_id": "MT",
   "lat": 45.6833,
   "lng": -111.0558,
   "population": 65279
 },
 {
   "id": 138,
   "city": "Bradenton",
   "state_id": "FL",
   "lat": 27.4901,
   "lng": -82.5757,
   "population": 55795
 },
 {
   "id": 139,
   "city": "Brandon",
   "state_id": "FL",
   "lat": 27.9367,
   "lng": -82.3,
   "population": 114923
 },
 {
   "id": 140,
   "city": "Brea",
   "state_id": "CA",
   "lat": 33.9254,
   "lng": -117.8655,
   "population": 47099
 },
 {
   "id": 141,
   "city": "Bremerton",
   "state_id": "WA",
   "lat": 47.5436,
   "lng": -122.7121,
   "population": 226805
 },
 {
   "id": 142,
   "city": "Brentwood",
   "state_id": "CA",
   "lat": 37.9356,
   "lng": -121.719,
   "population": 64443
 },
 {
   "id": 143,
   "city": "Brentwood",
   "state_id": "NY",
   "lat": 40.7839,
   "lng": -73.2522,
   "population": 65042
 },
 {
   "id": 144,
   "city": "Brentwood",
   "state_id": "TN",
   "lat": 35.9918,
   "lng": -86.7758,
   "population": 44830
 },
 {
   "id": 145,
   "city": "Bridgeport",
   "state_id": "CT",
   "lat": 41.1918,
   "lng": -73.1954,
   "population": 908251
 },
 {
   "id": 146,
   "city": "Brighton",
   "state_id": "CO",
   "lat": 39.9716,
   "lng": -104.7963,
   "population": 40569
 },
 {
   "id": 147,
   "city": "Bristol",
   "state_id": "CT",
   "lat": 41.6812,
   "lng": -72.9407,
   "population": 61052
 },
 {
   "id": 148,
   "city": "Bristol",
   "state_id": "TN",
   "lat": 36.5572,
   "lng": -82.2154,
   "population": 68083
 },
 {
   "id": 149,
   "city": "Brockton",
   "state_id": "MA",
   "lat": 42.0821,
   "lng": -71.0242,
   "population": 104713
 },
 {
   "id": 150,
   "city": "Broken Arrow",
   "state_id": "OK",
   "lat": 36.038,
   "lng": -95.7806,
   "population": 114237
 },
 {
   "id": 151,
   "city": "Bronx",
   "state_id": "NY",
   "lat": 40.8501,
   "lng": -73.8662,
   "population": 1472654
 },
 {
   "id": 152,
   "city": "Brookfield",
   "state_id": "WI",
   "lat": 43.064,
   "lng": -88.1231,
   "population": 41342
 },
 {
   "id": 153,
   "city": "Brookhaven",
   "state_id": "GA",
   "lat": 33.8743,
   "lng": -84.3314,
   "population": 56848
 },
 {
   "id": 154,
   "city": "Brooklyn",
   "state_id": "NY",
   "lat": 40.6501,
   "lng": -73.9496,
   "population": 2736074
 },
 {
   "id": 155,
   "city": "Brooklyn Center",
   "state_id": "MN",
   "lat": 45.0681,
   "lng": -93.3162,
   "population": 33109
 },
 {
   "id": 156,
   "city": "Brooklyn Park",
   "state_id": "MN",
   "lat": 45.1112,
   "lng": -93.3505,
   "population": 84951
 },
 {
   "id": 157,
   "city": "Broomfield",
   "state_id": "CO",
   "lat": 39.9542,
   "lng": -105.0526,
   "population": 73946
 },
 {
   "id": 158,
   "city": "Brownsville",
   "state_id": "TX",
   "lat": 25.9975,
   "lng": -97.458,
   "population": 215269
 },
 {
   "id": 159,
   "city": "Brunswick",
   "state_id": "GA",
   "lat": 31.1449,
   "lng": -81.4746,
   "population": 71160
 },
 {
   "id": 160,
   "city": "Brunswick",
   "state_id": "OH",
   "lat": 41.2465,
   "lng": -81.8198,
   "population": 35304
 },
 {
   "id": 161,
   "city": "Bryan",
   "state_id": "TX",
   "lat": 30.665,
   "lng": -96.3807,
   "population": 84820
 },
 {
   "id": 162,
   "city": "Buckeye",
   "state_id": "AZ",
   "lat": 33.4314,
   "lng": -112.6429,
   "population": 95042
 },
 {
   "id": 163,
   "city": "Buena Park",
   "state_id": "CA",
   "lat": 33.8572,
   "lng": -118.0046,
   "population": 83542
 },
 {
   "id": 164,
   "city": "Buenaventura Lakes",
   "state_id": "FL",
   "lat": 28.3349,
   "lng": -81.3539,
   "population": 33284
 },
 {
   "id": 165,
   "city": "Buffalo",
   "state_id": "NY",
   "lat": 42.9018,
   "lng": -78.8487,
   "population": 944589
 },
 {
   "id": 166,
   "city": "Buffalo Grove",
   "state_id": "IL",
   "lat": 42.1675,
   "lng": -87.9615,
   "population": 42934
 },
 {
   "id": 167,
   "city": "Bullhead City",
   "state_id": "AZ",
   "lat": 35.1205,
   "lng": -114.5461,
   "population": 41593
 },
 {
   "id": 168,
   "city": "Burbank",
   "state_id": "CA",
   "lat": 34.1879,
   "lng": -118.3235,
   "population": 106389
 },
 {
   "id": 169,
   "city": "Burien",
   "state_id": "WA",
   "lat": 47.4762,
   "lng": -122.3394,
   "population": 51505
 },
 {
   "id": 170,
   "city": "Burke",
   "state_id": "VA",
   "lat": 38.7773,
   "lng": -77.2633,
   "population": 44228
 },
 {
   "id": 171,
   "city": "Burleson",
   "state_id": "TX",
   "lat": 32.517,
   "lng": -97.3344,
   "population": 48970
 },
 {
   "id": 172,
   "city": "Burlingame",
   "state_id": "CA",
   "lat": 37.5859,
   "lng": -122.3667,
   "population": 30995
 },
 {
   "id": 173,
   "city": "Burlington",
   "state_id": "NC",
   "lat": 36.076,
   "lng": -79.4685,
   "population": 147415
 },
 {
   "id": 174,
   "city": "Burlington",
   "state_id": "VT",
   "lat": 44.4876,
   "lng": -73.2316,
   "population": 123307
 },
 {
   "id": 175,
   "city": "Burnsville",
   "state_id": "MN",
   "lat": 44.7648,
   "lng": -93.2793,
   "population": 64075
 },
 {
   "id": 176,
   "city": "Butte",
   "state_id": "MT",
   "lat": 45.902,
   "lng": -112.6571,
   "population": 34638
 },
 {
   "id": 177,
   "city": "Caldwell",
   "state_id": "ID",
   "lat": 43.6453,
   "lng": -116.6594,
   "population": 61212
 },
 {
   "id": 178,
   "city": "Calexico",
   "state_id": "CA",
   "lat": 32.6849,
   "lng": -115.4944,
   "population": 38599
 },
 {
   "id": 179,
   "city": "Calumet City",
   "state_id": "IL",
   "lat": 41.6134,
   "lng": -87.5505,
   "population": 35708
 },
 {
   "id": 180,
   "city": "Camarillo",
   "state_id": "CA",
   "lat": 34.223,
   "lng": -119.0321,
   "population": 76748
 },
 {
   "id": 181,
   "city": "Cambridge",
   "state_id": "MA",
   "lat": 42.3759,
   "lng": -71.1185,
   "population": 117962
 },
 {
   "id": 182,
   "city": "Camden",
   "state_id": "NJ",
   "lat": 39.9361,
   "lng": -75.1073,
   "population": 71799
 },
 {
   "id": 183,
   "city": "Campbell",
   "state_id": "CA",
   "lat": 37.2802,
   "lng": -121.9539,
   "population": 43464
 },
 {
   "id": 184,
   "city": "Canton",
   "state_id": "GA",
   "lat": 34.2467,
   "lng": -84.4897,
   "population": 33499
 },
 {
   "id": 185,
   "city": "Canton",
   "state_id": "OH",
   "lat": 40.8078,
   "lng": -81.3676,
   "population": 294047
 },
 {
   "id": 186,
   "city": "Canyon Lake",
   "state_id": "TX",
   "lat": 29.8761,
   "lng": -98.2611,
   "population": 32035
 },
 {
   "id": 187,
   "city": "Cape Coral",
   "state_id": "FL",
   "lat": 26.6443,
   "lng": -81.9957,
   "population": 654405
 },
 {
   "id": 188,
   "city": "Cape Girardeau",
   "state_id": "MO",
   "lat": 37.3109,
   "lng": -89.5597,
   "population": 39795
 },
 {
   "id": 189,
   "city": "Carlsbad",
   "state_id": "CA",
   "lat": 33.1246,
   "lng": -117.2834,
   "population": 114745
 },
 {
   "id": 190,
   "city": "Carlsbad",
   "state_id": "NM",
   "lat": 32.401,
   "lng": -104.2388,
   "population": 31755
 },
 {
   "id": 191,
   "city": "Carmel",
   "state_id": "IN",
   "lat": 39.965,
   "lng": -86.146,
   "population": 99453
 },
 {
   "id": 192,
   "city": "Carmichael",
   "state_id": "CA",
   "lat": 38.6318,
   "lng": -121.3263,
   "population": 78144
 },
 {
   "id": 193,
   "city": "Carol Stream",
   "state_id": "IL",
   "lat": 41.9181,
   "lng": -88.1307,
   "population": 39656
 },
 {
   "id": 194,
   "city": "Carpentersville",
   "state_id": "IL",
   "lat": 42.1227,
   "lng": -88.2896,
   "population": 37834
 },
 {
   "id": 195,
   "city": "Carrollton",
   "state_id": "TX",
   "lat": 32.989,
   "lng": -96.8999,
   "population": 132284
 },
 {
   "id": 196,
   "city": "Carrollwood",
   "state_id": "FL",
   "lat": 28.0577,
   "lng": -82.5148,
   "population": 36148
 },
 {
   "id": 197,
   "city": "Carson",
   "state_id": "CA",
   "lat": 33.8374,
   "lng": -118.2559,
   "population": 94475
 },
 {
   "id": 198,
   "city": "Carson City",
   "state_id": "NV",
   "lat": 39.1511,
   "lng": -119.7476,
   "population": 58249
 },
 {
   "id": 199,
   "city": "Cary",
   "state_id": "NC",
   "lat": 35.7819,
   "lng": -78.8195,
   "population": 174880
 },
 {
   "id": 200,
   "city": "Casa Grande",
   "state_id": "AZ",
   "lat": 32.9069,
   "lng": -111.7624,
   "population": 55186
 },
 {
   "id": 201,
   "city": "Casas Adobes",
   "state_id": "AZ",
   "lat": 32.3423,
   "lng": -111.0113,
   "population": 69917
 },
 {
   "id": 202,
   "city": "Casper",
   "state_id": "WY",
   "lat": 42.842,
   "lng": -106.3208,
   "population": 66876
 },
 {
   "id": 203,
   "city": "Castle Rock",
   "state_id": "CO",
   "lat": 39.3763,
   "lng": -104.8535,
   "population": 74065
 },
 {
   "id": 204,
   "city": "Castro Valley",
   "state_id": "CA",
   "lat": 37.7088,
   "lng": -122.0626,
   "population": 65444
 },
 {
   "id": 205,
   "city": "Catalina Foothills",
   "state_id": "AZ",
   "lat": 32.3046,
   "lng": -110.8838,
   "population": 50573
 },
 {
   "id": 206,
   "city": "Cathedral City",
   "state_id": "CA",
   "lat": 33.8362,
   "lng": -116.4642,
   "population": 51964
 },
 {
   "id": 207,
   "city": "Catonsville",
   "state_id": "MD",
   "lat": 39.2646,
   "lng": -76.7424,
   "population": 42767
 },
 {
   "id": 208,
   "city": "Cedar City",
   "state_id": "UT",
   "lat": 37.6834,
   "lng": -113.0956,
   "population": 35812
 },
 {
   "id": 209,
   "city": "Cedar Falls",
   "state_id": "IA",
   "lat": 42.5195,
   "lng": -92.4536,
   "population": 40686
 },
 {
   "id": 210,
   "city": "Cedar Hill",
   "state_id": "TX",
   "lat": 32.581,
   "lng": -96.9591,
   "population": 48733
 },
 {
   "id": 211,
   "city": "Cedar Park",
   "state_id": "TX",
   "lat": 30.5105,
   "lng": -97.8197,
   "population": 76344
 },
 {
   "id": 212,
   "city": "Cedar Rapids",
   "state_id": "IA",
   "lat": 41.9662,
   "lng": -91.6783,
   "population": 191104
 },
 {
   "id": 213,
   "city": "Centennial",
   "state_id": "CO",
   "lat": 39.5926,
   "lng": -104.8673,
   "population": 107702
 },
 {
   "id": 214,
   "city": "Centereach",
   "state_id": "NY",
   "lat": 40.8681,
   "lng": -73.0821,
   "population": 31889
 },
 {
   "id": 215,
   "city": "Central Islip",
   "state_id": "NY",
   "lat": 40.7836,
   "lng": -73.1945,
   "population": 36519
 },
 {
   "id": 216,
   "city": "Centreville",
   "state_id": "VA",
   "lat": 38.839,
   "lng": -77.4389,
   "population": 72680
 },
 {
   "id": 217,
   "city": "Ceres",
   "state_id": "CA",
   "lat": 37.5952,
   "lng": -120.962,
   "population": 49183
 },
 {
   "id": 218,
   "city": "Cerritos",
   "state_id": "CA",
   "lat": 33.8678,
   "lng": -118.0686,
   "population": 49016
 },
 {
   "id": 219,
   "city": "Champaign",
   "state_id": "IL",
   "lat": 40.1142,
   "lng": -88.2737,
   "population": 150179
 },
 {
   "id": 220,
   "city": "Chandler",
   "state_id": "AZ",
   "lat": 33.2825,
   "lng": -111.8514,
   "population": 275618
 },
 {
   "id": 221,
   "city": "Channelview",
   "state_id": "TX",
   "lat": 29.7914,
   "lng": -95.1144,
   "population": 43204
 },
 {
   "id": 222,
   "city": "Chapel Hill",
   "state_id": "NC",
   "lat": 35.9271,
   "lng": -79.0391,
   "population": 58919
 },
 {
   "id": 223,
   "city": "Charleston",
   "state_id": "SC",
   "lat": 32.8168,
   "lng": -79.9687,
   "population": 706884
 },
 {
   "id": 224,
   "city": "Charleston",
   "state_id": "WV",
   "lat": 38.3484,
   "lng": -81.6322,
   "population": 129754
 },
 {
   "id": 225,
   "city": "Charlotte",
   "state_id": "NC",
   "lat": 35.2083,
   "lng": -80.8303,
   "population": 1427444
 },
 {
   "id": 226,
   "city": "Charlottesville",
   "state_id": "VA",
   "lat": 38.0375,
   "lng": -78.4855,
   "population": 103760
 },
 {
   "id": 227,
   "city": "Chattanooga",
   "state_id": "TN",
   "lat": 35.066,
   "lng": -85.2481,
   "population": 406849
 },
 {
   "id": 228,
   "city": "Chelsea",
   "state_id": "MA",
   "lat": 42.3959,
   "lng": -71.0325,
   "population": 39890
 },
 {
   "id": 229,
   "city": "Chesapeake",
   "state_id": "VA",
   "lat": 36.6778,
   "lng": -76.3023,
   "population": 249377
 },
 {
   "id": 230,
   "city": "Chester",
   "state_id": "PA",
   "lat": 39.8456,
   "lng": -75.3718,
   "population": 33048
 },
 {
   "id": 231,
   "city": "Chesterfield",
   "state_id": "MO",
   "lat": 38.6589,
   "lng": -90.5803,
   "population": 49645
 },
 {
   "id": 232,
   "city": "Cheyenne",
   "state_id": "WY",
   "lat": 41.135,
   "lng": -104.7902,
   "population": 78204
 },
 {
   "id": 233,
   "city": "Chicago",
   "state_id": "IL",
   "lat": 41.8375,
   "lng": -87.6866,
   "population": 8497759
 },
 {
   "id": 234,
   "city": "Chico",
   "state_id": "CA",
   "lat": 39.7578,
   "lng": -121.8161,
   "population": 110001
 },
 {
   "id": 235,
   "city": "Chicopee",
   "state_id": "MA",
   "lat": 42.1764,
   "lng": -72.5719,
   "population": 55441
 },
 {
   "id": 236,
   "city": "Chillum",
   "state_id": "MD",
   "lat": 38.9666,
   "lng": -76.9791,
   "population": 35908
 },
 {
   "id": 237,
   "city": "Chino",
   "state_id": "CA",
   "lat": 33.9836,
   "lng": -117.6654,
   "population": 91008
 },
 {
   "id": 238,
   "city": "Chino Hills",
   "state_id": "CA",
   "lat": 33.9508,
   "lng": -117.7254,
   "population": 78223
 },
 {
   "id": 239,
   "city": "Chula Vista",
   "state_id": "CA",
   "lat": 32.6281,
   "lng": -117.0144,
   "population": 276103
 },
 {
   "id": 240,
   "city": "Cibolo",
   "state_id": "TX",
   "lat": 29.5634,
   "lng": -98.2115,
   "population": 32640
 },
 {
   "id": 241,
   "city": "Cicero",
   "state_id": "IL",
   "lat": 41.8445,
   "lng": -87.7593,
   "population": 84189
 },
 {
   "id": 242,
   "city": "Cincinnati",
   "state_id": "OH",
   "lat": 39.1413,
   "lng": -84.506,
   "population": 1692702
 },
 {
   "id": 243,
   "city": "Citrus Heights",
   "state_id": "CA",
   "lat": 38.6948,
   "lng": -121.288,
   "population": 87127
 },
 {
   "id": 244,
   "city": "Claremont",
   "state_id": "CA",
   "lat": 34.1259,
   "lng": -117.7153,
   "population": 36891
 },
 {
   "id": 245,
   "city": "Clarksville",
   "state_id": "TN",
   "lat": 36.5692,
   "lng": -87.3413,
   "population": 210551
 },
 {
   "id": 246,
   "city": "Clearfield",
   "state_id": "UT",
   "lat": 41.103,
   "lng": -112.0238,
   "population": 32369
 },
 {
   "id": 247,
   "city": "Clearwater",
   "state_id": "FL",
   "lat": 27.979,
   "lng": -82.7623,
   "population": 116984
 },
 {
   "id": 248,
   "city": "Cleburne",
   "state_id": "TX",
   "lat": 32.3568,
   "lng": -97.4151,
   "population": 31849
 },
 {
   "id": 249,
   "city": "Clermont",
   "state_id": "FL",
   "lat": 28.5325,
   "lng": -81.7208,
   "population": 43266
 },
 {
   "id": 250,
   "city": "Cleveland",
   "state_id": "OH",
   "lat": 41.4764,
   "lng": -81.6805,
   "population": 1680247
 },
 {
   "id": 251,
   "city": "Cleveland",
   "state_id": "TN",
   "lat": 35.1817,
   "lng": -84.8707,
   "population": 72870
 },
 {
   "id": 252,
   "city": "Cleveland Heights",
   "state_id": "OH",
   "lat": 41.5113,
   "lng": -81.5636,
   "population": 45002
 },
 {
   "id": 253,
   "city": "Clifton",
   "state_id": "NJ",
   "lat": 40.863,
   "lng": -74.1575,
   "population": 89451
 },
 {
   "id": 254,
   "city": "Clinton",
   "state_id": "MD",
   "lat": 38.7499,
   "lng": -76.9063,
   "population": 40224
 },
 {
   "id": 255,
   "city": "Clovis",
   "state_id": "CA",
   "lat": 36.8278,
   "lng": -119.683,
   "population": 120607
 },
 {
   "id": 256,
   "city": "Clovis",
   "state_id": "NM",
   "lat": 34.4376,
   "lng": -103.1923,
   "population": 38453
 },
 {
   "id": 257,
   "city": "Coachella",
   "state_id": "CA",
   "lat": 33.6905,
   "lng": -116.143,
   "population": 42279
 },
 {
   "id": 258,
   "city": "Coconut Creek",
   "state_id": "FL",
   "lat": 26.2803,
   "lng": -80.1842,
   "population": 57574
 },
 {
   "id": 259,
   "city": "Coeur d'Alene",
   "state_id": "ID",
   "lat": 47.704,
   "lng": -116.7936,
   "population": 134503
 },
 {
   "id": 260,
   "city": "College Park",
   "state_id": "MD",
   "lat": 38.996,
   "lng": -76.9337,
   "population": 34416
 },
 {
   "id": 261,
   "city": "College Station",
   "state_id": "TX",
   "lat": 30.5852,
   "lng": -96.2959,
   "population": 213177
 },
 {
   "id": 262,
   "city": "Collierville",
   "state_id": "TN",
   "lat": 35.047,
   "lng": -89.6987,
   "population": 51170
 },
 {
   "id": 263,
   "city": "Colorado Springs",
   "state_id": "CO",
   "lat": 38.8674,
   "lng": -104.7605,
   "population": 638194
 },
 {
   "id": 264,
   "city": "Colton",
   "state_id": "CA",
   "lat": 34.0538,
   "lng": -117.3255,
   "population": 53959
 },
 {
   "id": 265,
   "city": "Columbia",
   "state_id": "MD",
   "lat": 39.2004,
   "lng": -76.859,
   "population": 106600
 },
 {
   "id": 266,
   "city": "Columbia",
   "state_id": "MO",
   "lat": 38.9472,
   "lng": -92.3268,
   "population": 142637
 },
 {
   "id": 267,
   "city": "Columbia",
   "state_id": "SC",
   "lat": 34.0378,
   "lng": -80.9036,
   "population": 604065
 },
 {
   "id": 268,
   "city": "Columbia",
   "state_id": "TN",
   "lat": 35.6238,
   "lng": -87.0484,
   "population": 42474
 },
 {
   "id": 269,
   "city": "Columbus",
   "state_id": "GA",
   "lat": 32.51,
   "lng": -84.8771,
   "population": 264282
 },
 {
   "id": 270,
   "city": "Columbus",
   "state_id": "IN",
   "lat": 39.2093,
   "lng": -85.9183,
   "population": 50896
 },
 {
   "id": 271,
   "city": "Columbus",
   "state_id": "OH",
   "lat": 39.9862,
   "lng": -82.9855,
   "population": 1572546
 },
 {
   "id": 272,
   "city": "Commack",
   "state_id": "NY",
   "lat": 40.8435,
   "lng": -73.2833,
   "population": 35770
 },
 {
   "id": 273,
   "city": "Commerce City",
   "state_id": "CO",
   "lat": 39.8641,
   "lng": -104.843,
   "population": 63050
 },
 {
   "id": 274,
   "city": "Compton",
   "state_id": "CA",
   "lat": 33.893,
   "lng": -118.2274,
   "population": 94822
 },
 {
   "id": 275,
   "city": "Concord",
   "state_id": "CA",
   "lat": 37.9722,
   "lng": -122.0016,
   "population": 531175
 },
 {
   "id": 276,
   "city": "Concord",
   "state_id": "NC",
   "lat": 35.3933,
   "lng": -80.6369,
   "population": 288783
 },
 {
   "id": 277,
   "city": "Concord",
   "state_id": "NH",
   "lat": 43.2305,
   "lng": -71.5595,
   "population": 44049
 },
 {
   "id": 278,
   "city": "Conroe",
   "state_id": "TX",
   "lat": 30.3238,
   "lng": -95.4824,
   "population": 92475
 },
 {
   "id": 279,
   "city": "Conway",
   "state_id": "AR",
   "lat": 35.0753,
   "lng": -92.4692,
   "population": 69651
 },
 {
   "id": 280,
   "city": "Cookeville",
   "state_id": "TN",
   "lat": 36.1482,
   "lng": -85.5109,
   "population": 34967
 },
 {
   "id": 281,
   "city": "Coon Rapids",
   "state_id": "MN",
   "lat": 45.1755,
   "lng": -93.3094,
   "population": 63296
 },
 {
   "id": 282,
   "city": "Cooper City",
   "state_id": "FL",
   "lat": 26.0463,
   "lng": -80.2862,
   "population": 34046
 },
 {
   "id": 283,
   "city": "Coppell",
   "state_id": "TX",
   "lat": 32.9639,
   "lng": -96.9903,
   "population": 42513
 },
 {
   "id": 284,
   "city": "Copperas Cove",
   "state_id": "TX",
   "lat": 31.1192,
   "lng": -97.914,
   "population": 36436
 },
 {
   "id": 285,
   "city": "Coral Gables",
   "state_id": "FL",
   "lat": 25.7037,
   "lng": -80.2715,
   "population": 49696
 },
 {
   "id": 286,
   "city": "Coral Springs",
   "state_id": "FL",
   "lat": 26.2702,
   "lng": -80.2591,
   "population": 133801
 },
 {
   "id": 287,
   "city": "Coram",
   "state_id": "NY",
   "lat": 40.8812,
   "lng": -73.0059,
   "population": 42169
 },
 {
   "id": 288,
   "city": "Cornelius",
   "state_id": "NC",
   "lat": 35.4724,
   "lng": -80.8813,
   "population": 31396
 },
 {
   "id": 289,
   "city": "Corona",
   "state_id": "CA",
   "lat": 33.8616,
   "lng": -117.5649,
   "population": 158346
 },
 {
   "id": 290,
   "city": "Corpus Christi",
   "state_id": "TX",
   "lat": 27.7254,
   "lng": -97.3767,
   "population": 337230
 },
 {
   "id": 291,
   "city": "Corvallis",
   "state_id": "OR",
   "lat": 44.5698,
   "lng": -123.2779,
   "population": 67187
 },
 {
   "id": 292,
   "city": "Costa Mesa",
   "state_id": "CA",
   "lat": 33.6667,
   "lng": -117.9135,
   "population": 111490
 },
 {
   "id": 293,
   "city": "Cottage Grove",
   "state_id": "MN",
   "lat": 44.8161,
   "lng": -92.9274,
   "population": 39274
 },
 {
   "id": 294,
   "city": "Cottonwood Heights",
   "state_id": "UT",
   "lat": 40.6137,
   "lng": -111.8144,
   "population": 33257
 },
 {
   "id": 295,
   "city": "Council Bluffs",
   "state_id": "IA",
   "lat": 41.2369,
   "lng": -95.8516,
   "population": 62670
 },
 {
   "id": 296,
   "city": "Country Club",
   "state_id": "FL",
   "lat": 25.9407,
   "lng": -80.3102,
   "population": 50975
 },
 {
   "id": 297,
   "city": "Covina",
   "state_id": "CA",
   "lat": 34.0903,
   "lng": -117.8818,
   "population": 50717
 },
 {
   "id": 298,
   "city": "Covington",
   "state_id": "KY",
   "lat": 39.0334,
   "lng": -84.5166,
   "population": 40923
 },
 {
   "id": 299,
   "city": "Cranston",
   "state_id": "RI",
   "lat": 41.7658,
   "lng": -71.4858,
   "population": 82691
 },
 {
   "id": 300,
   "city": "Crown Point",
   "state_id": "IN",
   "lat": 41.4143,
   "lng": -87.3457,
   "population": 33735
 },
 {
   "id": 301,
   "city": "Crystal Lake",
   "state_id": "IL",
   "lat": 42.2333,
   "lng": -88.3351,
   "population": 40463
 },
 {
   "id": 302,
   "city": "Culver City",
   "state_id": "CA",
   "lat": 34.0058,
   "lng": -118.3968,
   "population": 40357
 },
 {
   "id": 303,
   "city": "Cupertino",
   "state_id": "CA",
   "lat": 37.3168,
   "lng": -122.0466,
   "population": 59763
 },
 {
   "id": 304,
   "city": "Cutler Bay",
   "state_id": "FL",
   "lat": 25.5765,
   "lng": -80.3356,
   "population": 44738
 },
 {
   "id": 305,
   "city": "Cuyahoga Falls",
   "state_id": "OH",
   "lat": 41.1641,
   "lng": -81.5207,
   "population": 50916
 },
 {
   "id": 306,
   "city": "Cypress",
   "state_id": "CA",
   "lat": 33.8171,
   "lng": -118.0386,
   "population": 49955
 },
 {
   "id": 307,
   "city": "Dakota Ridge",
   "state_id": "CO",
   "lat": 39.6192,
   "lng": -105.1344,
   "population": 34234
 },
 {
   "id": 308,
   "city": "Dale City",
   "state_id": "VA",
   "lat": 38.6473,
   "lng": -77.3459,
   "population": 73928
 },
 {
   "id": 309,
   "city": "Dallas",
   "state_id": "TX",
   "lat": 32.7935,
   "lng": -96.7667,
   "population": 5830932
 },
 {
   "id": 310,
   "city": "Dalton",
   "state_id": "GA",
   "lat": 34.769,
   "lng": -84.972,
   "population": 68614
 },
 {
   "id": 311,
   "city": "Daly City",
   "state_id": "CA",
   "lat": 37.6862,
   "lng": -122.4685,
   "population": 103648
 },
 {
   "id": 312,
   "city": "Dana Point",
   "state_id": "CA",
   "lat": 33.4733,
   "lng": -117.6967,
   "population": 33025
 },
 {
   "id": 313,
   "city": "Danbury",
   "state_id": "CT",
   "lat": 41.4015,
   "lng": -73.4709,
   "population": 180143
 },
 {
   "id": 314,
   "city": "Dania Beach",
   "state_id": "FL",
   "lat": 26.0593,
   "lng": -80.1637,
   "population": 31700
 },
 {
   "id": 315,
   "city": "Danville",
   "state_id": "CA",
   "lat": 37.8121,
   "lng": -121.9698,
   "population": 43449
 },
 {
   "id": 316,
   "city": "Danville",
   "state_id": "VA",
   "lat": 36.5831,
   "lng": -79.4088,
   "population": 42507
 },
 {
   "id": 317,
   "city": "Davenport",
   "state_id": "IA",
   "lat": 41.5565,
   "lng": -90.6053,
   "population": 281333
 },
 {
   "id": 318,
   "city": "Davie",
   "state_id": "FL",
   "lat": 26.0789,
   "lng": -80.287,
   "population": 105821
 },
 {
   "id": 319,
   "city": "Davis",
   "state_id": "CA",
   "lat": 38.5553,
   "lng": -121.737,
   "population": 77874
 },
 {
   "id": 320,
   "city": "Dayton",
   "state_id": "OH",
   "lat": 39.7805,
   "lng": -84.2003,
   "population": 668825
 },
 {
   "id": 321,
   "city": "Daytona Beach",
   "state_id": "FL",
   "lat": 29.1995,
   "lng": -81.0982,
   "population": 73329
 },
 {
   "id": 322,
   "city": "Dearborn",
   "state_id": "MI",
   "lat": 42.3127,
   "lng": -83.213,
   "population": 108414
 },
 {
   "id": 323,
   "city": "Dearborn Heights",
   "state_id": "MI",
   "lat": 42.3164,
   "lng": -83.2769,
   "population": 62474
 },
 {
   "id": 324,
   "city": "Decatur",
   "state_id": "AL",
   "lat": 34.5731,
   "lng": -86.9905,
   "population": 57525
 },
 {
   "id": 325,
   "city": "Decatur",
   "state_id": "IL",
   "lat": 39.8557,
   "lng": -88.9342,
   "population": 86231
 },
 {
   "id": 326,
   "city": "Deer Park",
   "state_id": "TX",
   "lat": 29.6898,
   "lng": -95.1151,
   "population": 34046
 },
 {
   "id": 327,
   "city": "Deerfield Beach",
   "state_id": "FL",
   "lat": 26.305,
   "lng": -80.1277,
   "population": 86455
 },
 {
   "id": 328,
   "city": "DeKalb",
   "state_id": "IL",
   "lat": 41.9314,
   "lng": -88.7481,
   "population": 40697
 },
 {
   "id": 329,
   "city": "Del Rio",
   "state_id": "TX",
   "lat": 29.3708,
   "lng": -100.8801,
   "population": 34722
 },
 {
   "id": 330,
   "city": "DeLand",
   "state_id": "FL",
   "lat": 29.0225,
   "lng": -81.2875,
   "population": 38392
 },
 {
   "id": 331,
   "city": "Delano",
   "state_id": "CA",
   "lat": 35.7662,
   "lng": -119.2635,
   "population": 50498
 },
 {
   "id": 332,
   "city": "Delaware",
   "state_id": "OH",
   "lat": 40.2851,
   "lng": -83.0741,
   "population": 41926
 },
 {
   "id": 333,
   "city": "Delray Beach",
   "state_id": "FL",
   "lat": 26.455,
   "lng": -80.0905,
   "population": 66646
 },
 {
   "id": 334,
   "city": "Deltona",
   "state_id": "FL",
   "lat": 28.905,
   "lng": -81.2137,
   "population": 221137
 },
 {
   "id": 335,
   "city": "Denton",
   "state_id": "TX",
   "lat": 33.2175,
   "lng": -97.1418,
   "population": 438492
 },
 {
   "id": 336,
   "city": "Denver",
   "state_id": "CO",
   "lat": 39.762,
   "lng": -104.8758,
   "population": 2687458
 },
 {
   "id": 337,
   "city": "Des Moines",
   "state_id": "IA",
   "lat": 41.5725,
   "lng": -93.6105,
   "population": 548926
 },
 {
   "id": 338,
   "city": "Des Moines",
   "state_id": "WA",
   "lat": 47.3914,
   "lng": -122.3156,
   "population": 32667
 },
 {
   "id": 339,
   "city": "Des Plaines",
   "state_id": "IL",
   "lat": 42.0345,
   "lng": -87.9008,
   "population": 60087
 },
 {
   "id": 340,
   "city": "Desert Hot Springs",
   "state_id": "CA",
   "lat": 33.955,
   "lng": -116.5429,
   "population": 32386
 },
 {
   "id": 341,
   "city": "DeSoto",
   "state_id": "TX",
   "lat": 32.5992,
   "lng": -96.8633,
   "population": 55882
 },
 {
   "id": 342,
   "city": "Detroit",
   "state_id": "MI",
   "lat": 42.3834,
   "lng": -83.1024,
   "population": 3725908
 },
 {
   "id": 343,
   "city": "Diamond Bar",
   "state_id": "CA",
   "lat": 33.9992,
   "lng": -117.8161,
   "population": 54534
 },
 {
   "id": 344,
   "city": "Doral",
   "state_id": "FL",
   "lat": 25.8152,
   "lng": -80.3565,
   "population": 74891
 },
 {
   "id": 345,
   "city": "Dothan",
   "state_id": "AL",
   "lat": 31.2336,
   "lng": -85.407,
   "population": 73037
 },
 {
   "id": 346,
   "city": "Douglasville",
   "state_id": "GA",
   "lat": 33.7384,
   "lng": -84.7054,
   "population": 35252
 },
 {
   "id": 347,
   "city": "Dover",
   "state_id": "DE",
   "lat": 39.161,
   "lng": -75.5202,
   "population": 130186
 },
 {
   "id": 348,
   "city": "Dover",
   "state_id": "NH",
   "lat": 43.1887,
   "lng": -70.8845,
   "population": 74554
 },
 {
   "id": 349,
   "city": "Downers Grove",
   "state_id": "IL",
   "lat": 41.7949,
   "lng": -88.0172,
   "population": 49996
 },
 {
   "id": 350,
   "city": "Downey",
   "state_id": "CA",
   "lat": 33.9379,
   "lng": -118.1311,
   "population": 113052
 },
 {
   "id": 351,
   "city": "Draper",
   "state_id": "UT",
   "lat": 40.4957,
   "lng": -111.8605,
   "population": 50635
 },
 {
   "id": 352,
   "city": "Drexel Heights",
   "state_id": "AZ",
   "lat": 32.1453,
   "lng": -111.048,
   "population": 30254
 },
 {
   "id": 353,
   "city": "Dublin",
   "state_id": "CA",
   "lat": 37.7161,
   "lng": -121.8963,
   "population": 71068
 },
 {
   "id": 354,
   "city": "Dublin",
   "state_id": "OH",
   "lat": 40.1112,
   "lng": -83.1454,
   "population": 48893
 },
 {
   "id": 355,
   "city": "Dubuque",
   "state_id": "IA",
   "lat": 42.5002,
   "lng": -90.707,
   "population": 68601
 },
 {
   "id": 356,
   "city": "Duluth",
   "state_id": "GA",
   "lat": 34.0053,
   "lng": -84.1492,
   "population": 31742
 },
 {
   "id": 357,
   "city": "Duluth",
   "state_id": "MN",
   "lat": 46.7756,
   "lng": -92.1393,
   "population": 118574
 },
 {
   "id": 358,
   "city": "Duncanville",
   "state_id": "TX",
   "lat": 32.646,
   "lng": -96.9127,
   "population": 40288
 },
 {
   "id": 359,
   "city": "Dundalk",
   "state_id": "MD",
   "lat": 39.2704,
   "lng": -76.4942,
   "population": 66321
 },
 {
   "id": 360,
   "city": "Dunedin",
   "state_id": "FL",
   "lat": 28.0329,
   "lng": -82.7862,
   "population": 36089
 },
 {
   "id": 361,
   "city": "Dunwoody",
   "state_id": "GA",
   "lat": 33.9418,
   "lng": -84.3122,
   "population": 51458
 },
 {
   "id": 362,
   "city": "Durham",
   "state_id": "NC",
   "lat": 35.9792,
   "lng": -78.9022,
   "population": 399616
 },
 {
   "id": 363,
   "city": "Eagan",
   "state_id": "MN",
   "lat": 44.817,
   "lng": -93.1638,
   "population": 68262
 },
 {
   "id": 364,
   "city": "Eagle",
   "state_id": "ID",
   "lat": 43.7223,
   "lng": -116.3866,
   "population": 30635
 },
 {
   "id": 365,
   "city": "Eagle Mountain",
   "state_id": "UT",
   "lat": 40.3137,
   "lng": -112.0114,
   "population": 46109
 },
 {
   "id": 366,
   "city": "East Lake",
   "state_id": "FL",
   "lat": 28.1206,
   "lng": -82.6868,
   "population": 33629
 },
 {
   "id": 367,
   "city": "East Lansing",
   "state_id": "MI",
   "lat": 42.748,
   "lng": -84.4836,
   "population": 45403
 },
 {
   "id": 368,
   "city": "East Los Angeles",
   "state_id": "CA",
   "lat": 34.0326,
   "lng": -118.1691,
   "population": 117222
 },
 {
   "id": 369,
   "city": "East Meadow",
   "state_id": "NY",
   "lat": 40.7197,
   "lng": -73.5604,
   "population": 36856
 },
 {
   "id": 370,
   "city": "East Orange",
   "state_id": "NJ",
   "lat": 40.7651,
   "lng": -74.2117,
   "population": 68879
 },
 {
   "id": 371,
   "city": "East Point",
   "state_id": "GA",
   "lat": 33.6696,
   "lng": -84.4701,
   "population": 38113
 },
 {
   "id": 372,
   "city": "East Providence",
   "state_id": "RI",
   "lat": 41.8065,
   "lng": -71.3565,
   "population": 47012
 },
 {
   "id": 373,
   "city": "Eastpointe",
   "state_id": "MI",
   "lat": 42.4657,
   "lng": -82.9461,
   "population": 34087
 },
 {
   "id": 374,
   "city": "Eastvale",
   "state_id": "CA",
   "lat": 33.9617,
   "lng": -117.5803,
   "population": 69594
 },
 {
   "id": 375,
   "city": "Eau Claire",
   "state_id": "WI",
   "lat": 44.8197,
   "lng": -91.4948,
   "population": 109491
 },
 {
   "id": 376,
   "city": "Eden Prairie",
   "state_id": "MN",
   "lat": 44.8488,
   "lng": -93.4595,
   "population": 63623
 },
 {
   "id": 377,
   "city": "Edina",
   "state_id": "MN",
   "lat": 44.8914,
   "lng": -93.3602,
   "population": 53037
 },
 {
   "id": 378,
   "city": "Edinburg",
   "state_id": "TX",
   "lat": 26.3196,
   "lng": -98.1597,
   "population": 100964
 },
 {
   "id": 379,
   "city": "Edmond",
   "state_id": "OK",
   "lat": 35.6689,
   "lng": -97.416,
   "population": 94503
 },
 {
   "id": 380,
   "city": "Edmonds",
   "state_id": "WA",
   "lat": 47.8115,
   "lng": -122.3533,
   "population": 42705
 },
 {
   "id": 381,
   "city": "Egypt Lake-Leto",
   "state_id": "FL",
   "lat": 28.0177,
   "lng": -82.5062,
   "population": 36000
 },
 {
   "id": 382,
   "city": "El Cajon",
   "state_id": "CA",
   "lat": 32.8017,
   "lng": -116.9604,
   "population": 105721
 },
 {
   "id": 383,
   "city": "El Centro",
   "state_id": "CA",
   "lat": 32.7865,
   "lng": -115.5595,
   "population": 44184
 },
 {
   "id": 384,
   "city": "El Dorado Hills",
   "state_id": "CA",
   "lat": 38.675,
   "lng": -121.049,
   "population": 49082
 },
 {
   "id": 385,
   "city": "El Mirage",
   "state_id": "AZ",
   "lat": 33.5905,
   "lng": -112.3271,
   "population": 35652
 },
 {
   "id": 386,
   "city": "El Monte",
   "state_id": "CA",
   "lat": 34.0739,
   "lng": -118.0291,
   "population": 108682
 },
 {
   "id": 387,
   "city": "El Paso",
   "state_id": "TX",
   "lat": 31.8476,
   "lng": -106.43,
   "population": 865270
 },
 {
   "id": 388,
   "city": "El Paso de Robles",
   "state_id": "CA",
   "lat": 35.6394,
   "lng": -120.656,
   "population": 70128
 },
 {
   "id": 389,
   "city": "Eldersburg",
   "state_id": "MD",
   "lat": 39.4041,
   "lng": -76.9528,
   "population": 30357
 },
 {
   "id": 390,
   "city": "Elgin",
   "state_id": "IL",
   "lat": 42.0383,
   "lng": -88.324,
   "population": 114190
 },
 {
   "id": 391,
   "city": "Elizabeth",
   "state_id": "NJ",
   "lat": 40.6658,
   "lng": -74.1913,
   "population": 135665
 },
 {
   "id": 392,
   "city": "Elizabethtown",
   "state_id": "KY",
   "lat": 37.7031,
   "lng": -85.8773,
   "population": 77770
 },
 {
   "id": 393,
   "city": "Elk Grove",
   "state_id": "CA",
   "lat": 38.4161,
   "lng": -121.3842,
   "population": 176105
 },
 {
   "id": 394,
   "city": "Elk Grove Village",
   "state_id": "IL",
   "lat": 42.0064,
   "lng": -87.9921,
   "population": 32498
 },
 {
   "id": 395,
   "city": "Elkhart",
   "state_id": "IN",
   "lat": 41.6916,
   "lng": -85.9627,
   "population": 149423
 },
 {
   "id": 396,
   "city": "Ellicott City",
   "state_id": "MD",
   "lat": 39.2774,
   "lng": -76.8345,
   "population": 73589
 },
 {
   "id": 397,
   "city": "Elmhurst",
   "state_id": "IL",
   "lat": 41.8973,
   "lng": -87.9432,
   "population": 45648
 },
 {
   "id": 398,
   "city": "Elmont",
   "state_id": "NY",
   "lat": 40.7033,
   "lng": -73.7078,
   "population": 37866
 },
 {
   "id": 399,
   "city": "Elyria",
   "state_id": "OH",
   "lat": 41.376,
   "lng": -82.106,
   "population": 52780
 },
 {
   "id": 400,
   "city": "Encinitas",
   "state_id": "CA",
   "lat": 33.0492,
   "lng": -117.261,
   "population": 61942
 },
 {
   "id": 401,
   "city": "Englewood",
   "state_id": "CO",
   "lat": 39.6468,
   "lng": -104.9942,
   "population": 33634
 },
 {
   "id": 402,
   "city": "Enid",
   "state_id": "OK",
   "lat": 36.4063,
   "lng": -97.87,
   "population": 50961
 },
 {
   "id": 403,
   "city": "Enterprise",
   "state_id": "NV",
   "lat": 36.0091,
   "lng": -115.2278,
   "population": 225461
 },
 {
   "id": 404,
   "city": "Erie",
   "state_id": "CO",
   "lat": 40.0404,
   "lng": -105.0399,
   "population": 30447
 },
 {
   "id": 405,
   "city": "Erie",
   "state_id": "PA",
   "lat": 42.1167,
   "lng": -80.0733,
   "population": 185556
 },
 {
   "id": 406,
   "city": "Escondido",
   "state_id": "CA",
   "lat": 33.1348,
   "lng": -117.0723,
   "population": 151114
 },
 {
   "id": 407,
   "city": "Essex",
   "state_id": "MD",
   "lat": 39.3021,
   "lng": -76.4449,
   "population": 40842
 },
 {
   "id": 408,
   "city": "Estero",
   "state_id": "FL",
   "lat": 26.4276,
   "lng": -81.7951,
   "population": 36685
 },
 {
   "id": 409,
   "city": "Euclid",
   "state_id": "OH",
   "lat": 41.5903,
   "lng": -81.5188,
   "population": 49279
 },
 {
   "id": 410,
   "city": "Eugene",
   "state_id": "OR",
   "lat": 44.0564,
   "lng": -123.1174,
   "population": 270990
 },
 {
   "id": 411,
   "city": "Euless",
   "state_id": "TX",
   "lat": 32.8508,
   "lng": -97.08,
   "population": 60360
 },
 {
   "id": 412,
   "city": "Evans",
   "state_id": "GA",
   "lat": 33.5619,
   "lng": -82.1351,
   "population": 37456
 },
 {
   "id": 413,
   "city": "Evanston",
   "state_id": "IL",
   "lat": 42.0464,
   "lng": -87.6943,
   "population": 77181
 },
 {
   "id": 414,
   "city": "Evansville",
   "state_id": "IN",
   "lat": 37.9881,
   "lng": -87.5341,
   "population": 203661
 },
 {
   "id": 415,
   "city": "Everett",
   "state_id": "MA",
   "lat": 42.4064,
   "lng": -71.0545,
   "population": 48685
 },
 {
   "id": 416,
   "city": "Everett",
   "state_id": "WA",
   "lat": 47.9525,
   "lng": -122.1669,
   "population": 110847
 },
 {
   "id": 417,
   "city": "Fair Lawn",
   "state_id": "NJ",
   "lat": 40.9359,
   "lng": -74.1177,
   "population": 34948
 },
 {
   "id": 418,
   "city": "Fair Oaks",
   "state_id": "CA",
   "lat": 38.6504,
   "lng": -121.2496,
   "population": 32754
 },
 {
   "id": 419,
   "city": "Fair Oaks",
   "state_id": "VA",
   "lat": 38.8653,
   "lng": -77.3586,
   "population": 35130
 },
 {
   "id": 420,
   "city": "Fairborn",
   "state_id": "OH",
   "lat": 39.801,
   "lng": -84.0094,
   "population": 34494
 },
 {
   "id": 421,
   "city": "Fairfield",
   "state_id": "CA",
   "lat": 38.2583,
   "lng": -122.0335,
   "population": 149635
 },
 {
   "id": 422,
   "city": "Fairfield",
   "state_id": "OH",
   "lat": 39.3301,
   "lng": -84.5409,
   "population": 44602
 },
 {
   "id": 423,
   "city": "Fall River",
   "state_id": "MA",
   "lat": 41.7136,
   "lng": -71.1015,
   "population": 93638
 },
 {
   "id": 424,
   "city": "Fallbrook",
   "state_id": "CA",
   "lat": 33.3693,
   "lng": -117.2259,
   "population": 33710
 },
 {
   "id": 425,
   "city": "Fargo",
   "state_id": "ND",
   "lat": 46.8651,
   "lng": -96.8292,
   "population": 228364
 },
 {
   "id": 426,
   "city": "Farmers Branch",
   "state_id": "TX",
   "lat": 32.9272,
   "lng": -96.8804,
   "population": 35985
 },
 {
   "id": 427,
   "city": "Farmington",
   "state_id": "NM",
   "lat": 36.7555,
   "lng": -108.1823,
   "population": 46457
 },
 {
   "id": 428,
   "city": "Farmington Hills",
   "state_id": "MI",
   "lat": 42.486,
   "lng": -83.3771,
   "population": 83562
 },
 {
   "id": 429,
   "city": "Fayetteville",
   "state_id": "AR",
   "lat": 36.0714,
   "lng": -94.1661,
   "population": 394650
 },
 {
   "id": 430,
   "city": "Fayetteville",
   "state_id": "NC",
   "lat": 35.085,
   "lng": -78.9772,
   "population": 328804
 },
 {
   "id": 431,
   "city": "Federal Way",
   "state_id": "WA",
   "lat": 47.3091,
   "lng": -122.3358,
   "population": 99614
 },
 {
   "id": 432,
   "city": "Ferry Pass",
   "state_id": "FL",
   "lat": 30.5205,
   "lng": -87.1899,
   "population": 32447
 },
 {
   "id": 433,
   "city": "Findlay",
   "state_id": "OH",
   "lat": 41.0469,
   "lng": -83.6379,
   "population": 40408
 },
 {
   "id": 434,
   "city": "Fishers",
   "state_id": "IN",
   "lat": 39.9588,
   "lng": -85.9659,
   "population": 99041
 },
 {
   "id": 435,
   "city": "Fitchburg",
   "state_id": "MA",
   "lat": 42.5912,
   "lng": -71.8156,
   "population": 41621
 },
 {
   "id": 436,
   "city": "Flagstaff",
   "state_id": "AZ",
   "lat": 35.1872,
   "lng": -111.6194,
   "population": 80167
 },
 {
   "id": 437,
   "city": "Flint",
   "state_id": "MI",
   "lat": 43.0236,
   "lng": -83.6921,
   "population": 293893
 },
 {
   "id": 438,
   "city": "Florence",
   "state_id": "AL",
   "lat": 34.8303,
   "lng": -87.6655,
   "population": 81268
 },
 {
   "id": 439,
   "city": "Florence",
   "state_id": "KY",
   "lat": 38.9899,
   "lng": -84.6471,
   "population": 32056
 },
 {
   "id": 440,
   "city": "Florence",
   "state_id": "SC",
   "lat": 34.178,
   "lng": -79.7898,
   "population": 90419
 },
 {
   "id": 441,
   "city": "Florence-Graham",
   "state_id": "CA",
   "lat": 33.9682,
   "lng": -118.2447,
   "population": 63132
 },
 {
   "id": 442,
   "city": "Florin",
   "state_id": "CA",
   "lat": 38.4832,
   "lng": -121.4043,
   "population": 49992
 },
 {
   "id": 443,
   "city": "Florissant",
   "state_id": "MO",
   "lat": 38.7996,
   "lng": -90.3269,
   "population": 52167
 },
 {
   "id": 444,
   "city": "Flower Mound",
   "state_id": "TX",
   "lat": 33.0343,
   "lng": -97.1146,
   "population": 76630
 },
 {
   "id": 445,
   "city": "Folsom",
   "state_id": "CA",
   "lat": 38.6668,
   "lng": -121.1422,
   "population": 81077
 },
 {
   "id": 446,
   "city": "Fond du Lac",
   "state_id": "WI",
   "lat": 43.7718,
   "lng": -88.4397,
   "population": 44527
 },
 {
   "id": 447,
   "city": "Fontana",
   "state_id": "CA",
   "lat": 34.0968,
   "lng": -117.4599,
   "population": 209279
 },
 {
   "id": 448,
   "city": "Foothill Farms",
   "state_id": "CA",
   "lat": 38.6867,
   "lng": -121.3475,
   "population": 37635
 },
 {
   "id": 449,
   "city": "Fort Collins",
   "state_id": "CO",
   "lat": 40.5477,
   "lng": -105.0656,
   "population": 335398
 },
 {
   "id": 450,
   "city": "Fort Lauderdale",
   "state_id": "FL",
   "lat": 26.1412,
   "lng": -80.1464,
   "population": 182673
 },
 {
   "id": 451,
   "city": "Fort Lee",
   "state_id": "NJ",
   "lat": 40.8509,
   "lng": -73.9713,
   "population": 39799
 },
 {
   "id": 452,
   "city": "Fort Myers",
   "state_id": "FL",
   "lat": 26.6194,
   "lng": -81.8302,
   "population": 88699
 },
 {
   "id": 453,
   "city": "Fort Pierce",
   "state_id": "FL",
   "lat": 27.4255,
   "lng": -80.3431,
   "population": 47153
 },
 {
   "id": 454,
   "city": "Fort Smith",
   "state_id": "AR",
   "lat": 35.3495,
   "lng": -94.3695,
   "population": 126452
 },
 {
   "id": 455,
   "city": "Fort Wayne",
   "state_id": "IN",
   "lat": 41.0888,
   "lng": -85.1436,
   "population": 337163
 },
 {
   "id": 456,
   "city": "Fort Worth",
   "state_id": "TX",
   "lat": 32.7817,
   "lng": -97.3474,
   "population": 924663
 },
 {
   "id": 457,
   "city": "Foster City",
   "state_id": "CA",
   "lat": 37.5553,
   "lng": -122.2659,
   "population": 33215
 },
 {
   "id": 458,
   "city": "Fountain Valley",
   "state_id": "CA",
   "lat": 33.7105,
   "lng": -117.9514,
   "population": 56754
 },
 {
   "id": 459,
   "city": "Fountainebleau",
   "state_id": "FL",
   "lat": 25.7723,
   "lng": -80.346,
   "population": 57066
 },
 {
   "id": 460,
   "city": "Framingham",
   "state_id": "MA",
   "lat": 42.3085,
   "lng": -71.4368,
   "population": 71805
 },
 {
   "id": 461,
   "city": "Franklin",
   "state_id": "TN",
   "lat": 35.92,
   "lng": -86.8516,
   "population": 83630
 },
 {
   "id": 462,
   "city": "Franklin",
   "state_id": "WI",
   "lat": 42.8854,
   "lng": -88.0104,
   "population": 36513
 },
 {
   "id": 463,
   "city": "Franklin Square",
   "state_id": "NY",
   "lat": 40.7002,
   "lng": -73.6775,
   "population": 31969
 },
 {
   "id": 464,
   "city": "Frederick",
   "state_id": "MD",
   "lat": 39.4337,
   "lng": -77.4141,
   "population": 184991
 },
 {
   "id": 465,
   "city": "Fredericksburg",
   "state_id": "VA",
   "lat": 38.2992,
   "lng": -77.4872,
   "population": 176791
 },
 {
   "id": 466,
   "city": "Freeport",
   "state_id": "NY",
   "lat": 40.6515,
   "lng": -73.585,
   "population": 44210
 },
 {
   "id": 467,
   "city": "Fremont",
   "state_id": "CA",
   "lat": 37.5265,
   "lng": -121.9843,
   "population": 228795
 },
 {
   "id": 468,
   "city": "French Valley",
   "state_id": "CA",
   "lat": 33.5999,
   "lng": -117.1069,
   "population": 41239
 },
 {
   "id": 469,
   "city": "Fresno",
   "state_id": "CA",
   "lat": 36.783,
   "lng": -119.7939,
   "population": 725276
 },
 {
   "id": 470,
   "city": "Friendswood",
   "state_id": "TX",
   "lat": 29.511,
   "lng": -95.1981,
   "population": 40888
 },
 {
   "id": 471,
   "city": "Frisco",
   "state_id": "TX",
   "lat": 33.156,
   "lng": -96.8216,
   "population": 202075
 },
 {
   "id": 472,
   "city": "Fruit Cove",
   "state_id": "FL",
   "lat": 30.0972,
   "lng": -81.6175,
   "population": 35333
 },
 {
   "id": 473,
   "city": "Fullerton",
   "state_id": "CA",
   "lat": 33.8841,
   "lng": -117.9279,
   "population": 142280
 },
 {
   "id": 474,
   "city": "Fuquay-Varina",
   "state_id": "NC",
   "lat": 35.5953,
   "lng": -78.7778,
   "population": 35428
 },
 {
   "id": 475,
   "city": "Gadsden",
   "state_id": "AL",
   "lat": 34.0086,
   "lng": -86.0157,
   "population": 33881
 },
 {
   "id": 476,
   "city": "Gahanna",
   "state_id": "OH",
   "lat": 40.0251,
   "lng": -82.8637,
   "population": 35529
 },
 {
   "id": 477,
   "city": "Gainesville",
   "state_id": "FL",
   "lat": 29.6804,
   "lng": -82.3459,
   "population": 220929
 },
 {
   "id": 478,
   "city": "Gainesville",
   "state_id": "GA",
   "lat": 34.2902,
   "lng": -83.8294,
   "population": 175569
 },
 {
   "id": 479,
   "city": "Gaithersburg",
   "state_id": "MD",
   "lat": 39.1346,
   "lng": -77.2131,
   "population": 69016
 },
 {
   "id": 480,
   "city": "Gallatin",
   "state_id": "TN",
   "lat": 36.3782,
   "lng": -86.4698,
   "population": 44947
 },
 {
   "id": 481,
   "city": "Galveston",
   "state_id": "TX",
   "lat": 29.2484,
   "lng": -94.8913,
   "population": 200451
 },
 {
   "id": 482,
   "city": "Garden Grove",
   "state_id": "CA",
   "lat": 33.7787,
   "lng": -117.9601,
   "population": 171637
 },
 {
   "id": 483,
   "city": "Gardena",
   "state_id": "CA",
   "lat": 33.8943,
   "lng": -118.3072,
   "population": 60377
 },
 {
   "id": 484,
   "city": "Garfield",
   "state_id": "NJ",
   "lat": 40.8791,
   "lng": -74.1085,
   "population": 32472
 },
 {
   "id": 485,
   "city": "Garland",
   "state_id": "TX",
   "lat": 32.91,
   "lng": -96.6304,
   "population": 244026
 },
 {
   "id": 486,
   "city": "Garner",
   "state_id": "NC",
   "lat": 35.6936,
   "lng": -78.6181,
   "population": 31684
 },
 {
   "id": 487,
   "city": "Gary",
   "state_id": "IN",
   "lat": 41.5905,
   "lng": -87.3473,
   "population": 69136
 },
 {
   "id": 488,
   "city": "Gastonia",
   "state_id": "NC",
   "lat": 35.2494,
   "lng": -81.1854,
   "population": 178220
 },
 {
   "id": 489,
   "city": "Georgetown",
   "state_id": "KY",
   "lat": 38.2247,
   "lng": -84.5487,
   "population": 37510
 },
 {
   "id": 490,
   "city": "Georgetown",
   "state_id": "TX",
   "lat": 30.666,
   "lng": -97.6966,
   "population": 71788
 },
 {
   "id": 491,
   "city": "Germantown",
   "state_id": "MD",
   "lat": 39.1755,
   "lng": -77.2643,
   "population": 90210
 },
 {
   "id": 492,
   "city": "Germantown",
   "state_id": "TN",
   "lat": 35.0829,
   "lng": -89.7824,
   "population": 41094
 },
 {
   "id": 493,
   "city": "Gilbert",
   "state_id": "AZ",
   "lat": 33.31,
   "lng": -111.7463,
   "population": 267267
 },
 {
   "id": 494,
   "city": "Gillette",
   "state_id": "WY",
   "lat": 44.2752,
   "lng": -105.4982,
   "population": 33158
 },
 {
   "id": 495,
   "city": "Gilroy",
   "state_id": "CA",
   "lat": 37.0046,
   "lng": -121.5854,
   "population": 110720
 },
 {
   "id": 496,
   "city": "Glen Burnie",
   "state_id": "MD",
   "lat": 39.156,
   "lng": -76.6071,
   "population": 71427
 },
 {
   "id": 497,
   "city": "Glendale",
   "state_id": "AZ",
   "lat": 33.5791,
   "lng": -112.2311,
   "population": 248083
 },
 {
   "id": 498,
   "city": "Glendale",
   "state_id": "CA",
   "lat": 34.1819,
   "lng": -118.2468,
   "population": 194512
 },
 {
   "id": 499,
   "city": "Glendale Heights",
   "state_id": "IL",
   "lat": 41.9196,
   "lng": -88.0785,
   "population": 33088
 },
 {
   "id": 500,
   "city": "Glendora",
   "state_id": "CA",
   "lat": 34.1449,
   "lng": -117.8467,
   "population": 52095
 },
 {
   "id": 501,
   "city": "Glens Falls",
   "state_id": "NY",
   "lat": 43.3109,
   "lng": -73.6458,
   "population": 73424
 },
 {
   "id": 502,
   "city": "Glenview",
   "state_id": "IL",
   "lat": 42.0825,
   "lng": -87.8214,
   "population": 47896
 },
 {
   "id": 503,
   "city": "Golden Glades",
   "state_id": "FL",
   "lat": 25.9129,
   "lng": -80.2013,
   "population": 34725
 },
 {
   "id": 504,
   "city": "Goldsboro",
   "state_id": "NC",
   "lat": 35.3778,
   "lng": -77.9717,
   "population": 33566
 },
 {
   "id": 505,
   "city": "Goleta",
   "state_id": "CA",
   "lat": 34.4361,
   "lng": -119.8594,
   "population": 32640
 },
 {
   "id": 506,
   "city": "Goodyear",
   "state_id": "AZ",
   "lat": 33.2614,
   "lng": -112.3622,
   "population": 97542
 },
 {
   "id": 507,
   "city": "Goose Creek",
   "state_id": "SC",
   "lat": 32.9927,
   "lng": -80.0055,
   "population": 45858
 },
 {
   "id": 508,
   "city": "Goshen",
   "state_id": "IN",
   "lat": 41.5743,
   "lng": -85.8309,
   "population": 34704
 },
 {
   "id": 509,
   "city": "Graham",
   "state_id": "WA",
   "lat": 47.0322,
   "lng": -122.2827,
   "population": 34778
 },
 {
   "id": 510,
   "city": "Grand Forks",
   "state_id": "ND",
   "lat": 47.9214,
   "lng": -97.0884,
   "population": 70475
 },
 {
   "id": 511,
   "city": "Grand Island",
   "state_id": "NE",
   "lat": 40.9218,
   "lng": -98.3586,
   "population": 52822
 },
 {
   "id": 512,
   "city": "Grand Junction",
   "state_id": "CO",
   "lat": 39.0877,
   "lng": -108.5673,
   "population": 138416
 },
 {
   "id": 513,
   "city": "Grand Prairie",
   "state_id": "TX",
   "lat": 32.6871,
   "lng": -97.0208,
   "population": 197279
 },
 {
   "id": 514,
   "city": "Grand Rapids",
   "state_id": "MI",
   "lat": 42.9619,
   "lng": -85.6562,
   "population": 609023
 },
 {
   "id": 515,
   "city": "Granger",
   "state_id": "IN",
   "lat": 41.7374,
   "lng": -86.1348,
   "population": 30019
 },
 {
   "id": 516,
   "city": "Grants Pass",
   "state_id": "OR",
   "lat": 42.4333,
   "lng": -123.3317,
   "population": 39131
 },
 {
   "id": 517,
   "city": "Grapevine",
   "state_id": "TX",
   "lat": 32.9343,
   "lng": -97.0742,
   "population": 50763
 },
 {
   "id": 518,
   "city": "Great Falls",
   "state_id": "MT",
   "lat": 47.5022,
   "lng": -111.2996,
   "population": 67300
 },
 {
   "id": 519,
   "city": "Greeley",
   "state_id": "CO",
   "lat": 40.4152,
   "lng": -104.7706,
   "population": 140984
 },
 {
   "id": 520,
   "city": "Green Bay",
   "state_id": "WI",
   "lat": 44.5148,
   "lng": -87.9895,
   "population": 225633
 },
 {
   "id": 521,
   "city": "Greenacres",
   "state_id": "FL",
   "lat": 26.627,
   "lng": -80.1371,
   "population": 43651
 },
 {
   "id": 522,
   "city": "Greenfield",
   "state_id": "WI",
   "lat": 42.9619,
   "lng": -88.0052,
   "population": 37521
 },
 {
   "id": 523,
   "city": "Greensboro",
   "state_id": "NC",
   "lat": 36.0956,
   "lng": -79.8271,
   "population": 347130
 },
 {
   "id": 524,
   "city": "Greenville",
   "state_id": "NC",
   "lat": 35.5943,
   "lng": -77.376,
   "population": 127574
 },
 {
   "id": 525,
   "city": "Greenville",
   "state_id": "SC",
   "lat": 34.8354,
   "lng": -82.3646,
   "population": 401443
 },
 {
   "id": 526,
   "city": "Greenwood",
   "state_id": "IN",
   "lat": 39.6019,
   "lng": -86.1073,
   "population": 63579
 },
 {
   "id": 527,
   "city": "Greer",
   "state_id": "SC",
   "lat": 34.933,
   "lng": -82.2313,
   "population": 37010
 },
 {
   "id": 528,
   "city": "Gresham",
   "state_id": "OR",
   "lat": 45.5021,
   "lng": -122.4413,
   "population": 113525
 },
 {
   "id": 529,
   "city": "Grove City",
   "state_id": "OH",
   "lat": 39.8654,
   "lng": -83.069,
   "population": 41423
 },
 {
   "id": 530,
   "city": "Gulfport",
   "state_id": "MS",
   "lat": 30.4274,
   "lng": -89.0704,
   "population": 228022
 },
 {
   "id": 531,
   "city": "Gurnee",
   "state_id": "IL",
   "lat": 42.3708,
   "lng": -87.9392,
   "population": 30629
 },
 {
   "id": 532,
   "city": "Hacienda Heights",
   "state_id": "CA",
   "lat": 33.997,
   "lng": -117.9727,
   "population": 55461
 },
 {
   "id": 533,
   "city": "Hackensack",
   "state_id": "NJ",
   "lat": 40.8891,
   "lng": -74.0462,
   "population": 45758
 },
 {
   "id": 534,
   "city": "Hagerstown",
   "state_id": "MD",
   "lat": 39.6401,
   "lng": -77.7217,
   "population": 195261
 },
 {
   "id": 535,
   "city": "Hallandale Beach",
   "state_id": "FL",
   "lat": 25.9854,
   "lng": -80.1423,
   "population": 41102
 },
 {
   "id": 536,
   "city": "Haltom City",
   "state_id": "TX",
   "lat": 32.8176,
   "lng": -97.2707,
   "population": 45771
 },
 {
   "id": 537,
   "city": "Hamilton",
   "state_id": "OH",
   "lat": 39.3939,
   "lng": -84.5653,
   "population": 63149
 },
 {
   "id": 538,
   "city": "Hammond",
   "state_id": "IN",
   "lat": 41.6168,
   "lng": -87.4909,
   "population": 77390
 },
 {
   "id": 539,
   "city": "Hammond",
   "state_id": "LA",
   "lat": 30.5061,
   "lng": -90.4563,
   "population": 76032
 },
 {
   "id": 540,
   "city": "Hampton",
   "state_id": "VA",
   "lat": 37.0551,
   "lng": -76.363,
   "population": 137217
 },
 {
   "id": 541,
   "city": "Hanford",
   "state_id": "CA",
   "lat": 36.3274,
   "lng": -119.6549,
   "population": 68122
 },
 {
   "id": 542,
   "city": "Hanover Park",
   "state_id": "IL",
   "lat": 41.9818,
   "lng": -88.1446,
   "population": 37222
 },
 {
   "id": 543,
   "city": "Harker Heights",
   "state_id": "TX",
   "lat": 31.0572,
   "lng": -97.6446,
   "population": 33036
 },
 {
   "id": 544,
   "city": "Harlingen",
   "state_id": "TX",
   "lat": 26.1916,
   "lng": -97.6977,
   "population": 121441
 },
 {
   "id": 545,
   "city": "Harrisburg",
   "state_id": "PA",
   "lat": 40.2752,
   "lng": -76.8843,
   "population": 498329
 },
 {
   "id": 546,
   "city": "Harrisonburg",
   "state_id": "VA",
   "lat": 38.4362,
   "lng": -78.8735,
   "population": 73160
 },
 {
   "id": 547,
   "city": "Hartford",
   "state_id": "CT",
   "lat": 41.7661,
   "lng": -72.6834,
   "population": 974684
 },
 {
   "id": 548,
   "city": "Hattiesburg",
   "state_id": "MS",
   "lat": 31.3074,
   "lng": -89.317,
   "population": 76501
 },
 {
   "id": 549,
   "city": "Haverhill",
   "state_id": "MA",
   "lat": 42.7838,
   "lng": -71.0871,
   "population": 67273
 },
 {
   "id": 550,
   "city": "Hawthorne",
   "state_id": "CA",
   "lat": 33.9147,
   "lng": -118.3476,
   "population": 86978
 },
 {
   "id": 551,
   "city": "Hayward",
   "state_id": "CA",
   "lat": 37.6328,
   "lng": -122.0766,
   "population": 160602
 },
 {
   "id": 552,
   "city": "Helena",
   "state_id": "MT",
   "lat": 46.5965,
   "lng": -112.0202,
   "population": 32529
 },
 {
   "id": 553,
   "city": "Hemet",
   "state_id": "CA",
   "lat": 33.7341,
   "lng": -116.9969,
   "population": 170621
 },
 {
   "id": 554,
   "city": "Henderson",
   "state_id": "NV",
   "lat": 36.0133,
   "lng": -115.0381,
   "population": 318063
 },
 {
   "id": 555,
   "city": "Hendersonville",
   "state_id": "TN",
   "lat": 36.3063,
   "lng": -86.5997,
   "population": 61589
 },
 {
   "id": 556,
   "city": "Herriman",
   "state_id": "UT",
   "lat": 40.4899,
   "lng": -112.017,
   "population": 55301
 },
 {
   "id": 557,
   "city": "Hesperia",
   "state_id": "CA",
   "lat": 34.3975,
   "lng": -117.3147,
   "population": 99878
 },
 {
   "id": 558,
   "city": "Hialeah",
   "state_id": "FL",
   "lat": 25.8696,
   "lng": -80.3045,
   "population": 222996
 },
 {
   "id": 559,
   "city": "Hickory",
   "state_id": "NC",
   "lat": 35.741,
   "lng": -81.3223,
   "population": 206008
 },
 {
   "id": 560,
   "city": "Hicksville",
   "state_id": "NY",
   "lat": 40.7637,
   "lng": -73.5245,
   "population": 44084
 },
 {
   "id": 561,
   "city": "High Point",
   "state_id": "NC",
   "lat": 35.991,
   "lng": -79.9937,
   "population": 164836
 },
 {
   "id": 562,
   "city": "Highland",
   "state_id": "CA",
   "lat": 34.1113,
   "lng": -117.165,
   "population": 56789
 },
 {
   "id": 563,
   "city": "Highland Park",
   "state_id": "IL",
   "lat": 42.1823,
   "lng": -87.8104,
   "population": 30209
 },
 {
   "id": 564,
   "city": "Highlands Ranch",
   "state_id": "CO",
   "lat": 39.5419,
   "lng": -104.9708,
   "population": 101514
 },
 {
   "id": 565,
   "city": "Hilliard",
   "state_id": "OH",
   "lat": 40.0353,
   "lng": -83.1578,
   "population": 36103
 },
 {
   "id": 566,
   "city": "Hillsboro",
   "state_id": "OR",
   "lat": 45.5273,
   "lng": -122.936,
   "population": 106612
 },
 {
   "id": 567,
   "city": "Hilton Head Island",
   "state_id": "SC",
   "lat": 32.1896,
   "lng": -80.7499,
   "population": 37708
 },
 {
   "id": 568,
   "city": "Hinesville",
   "state_id": "GA",
   "lat": 31.8248,
   "lng": -81.6137,
   "population": 34732
 },
 {
   "id": 569,
   "city": "Hobbs",
   "state_id": "NM",
   "lat": 32.7281,
   "lng": -103.16,
   "population": 39782
 },
 {
   "id": 570,
   "city": "Hoboken",
   "state_id": "NJ",
   "lat": 40.7452,
   "lng": -74.0281,
   "population": 58754
 },
 {
   "id": 571,
   "city": "Hoffman Estates",
   "state_id": "IL",
   "lat": 42.064,
   "lng": -88.1468,
   "population": 51744
 },
 {
   "id": 572,
   "city": "Holladay",
   "state_id": "UT",
   "lat": 40.66,
   "lng": -111.8226,
   "population": 31563
 },
 {
   "id": 573,
   "city": "Holland",
   "state_id": "MI",
   "lat": 42.7677,
   "lng": -86.0984,
   "population": 105134
 },
 {
   "id": 574,
   "city": "Hollister",
   "state_id": "CA",
   "lat": 36.8555,
   "lng": -121.3986,
   "population": 42093
 },
 {
   "id": 575,
   "city": "Holly Springs",
   "state_id": "NC",
   "lat": 35.6526,
   "lng": -78.8399,
   "population": 42023
 },
 {
   "id": 576,
   "city": "Hollywood",
   "state_id": "FL",
   "lat": 26.0293,
   "lng": -80.1679,
   "population": 152764
 },
 {
   "id": 577,
   "city": "Holyoke",
   "state_id": "MA",
   "lat": 42.2125,
   "lng": -72.6411,
   "population": 38210
 },
 {
   "id": 578,
   "city": "Homestead",
   "state_id": "FL",
   "lat": 25.4665,
   "lng": -80.4472,
   "population": 79996
 },
 {
   "id": 579,
   "city": "Hoover",
   "state_id": "AL",
   "lat": 33.3763,
   "lng": -86.8068,
   "population": 91995
 },
 {
   "id": 580,
   "city": "Hopkinsville",
   "state_id": "KY",
   "lat": 36.8381,
   "lng": -87.4775,
   "population": 31042
 },
 {
   "id": 581,
   "city": "Horizon West",
   "state_id": "FL",
   "lat": 28.4417,
   "lng": -81.6146,
   "population": 58595
 },
 {
   "id": 582,
   "city": "Hot Springs",
   "state_id": "AR",
   "lat": 34.4892,
   "lng": -93.0501,
   "population": 38025
 },
 {
   "id": 583,
   "city": "Houma",
   "state_id": "LA",
   "lat": 29.58,
   "lng": -90.7059,
   "population": 143160
 },
 {
   "id": 584,
   "city": "Houston",
   "state_id": "TX",
   "lat": 29.786,
   "lng": -95.3885,
   "population": 5970127
 },
 {
   "id": 585,
   "city": "Huber Heights",
   "state_id": "OH",
   "lat": 39.8595,
   "lng": -84.113,
   "population": 43095
 },
 {
   "id": 586,
   "city": "Huntersville",
   "state_id": "NC",
   "lat": 35.406,
   "lng": -80.8716,
   "population": 61202
 },
 {
   "id": 587,
   "city": "Huntington",
   "state_id": "WV",
   "lat": 38.4109,
   "lng": -82.4345,
   "population": 202754
 },
 {
   "id": 588,
   "city": "Huntington Beach",
   "state_id": "CA",
   "lat": 33.696,
   "lng": -118.0018,
   "population": 197481
 },
 {
   "id": 589,
   "city": "Huntington Park",
   "state_id": "CA",
   "lat": 33.98,
   "lng": -118.2167,
   "population": 54547
 },
 {
   "id": 590,
   "city": "Huntington Station",
   "state_id": "NY",
   "lat": 40.8446,
   "lng": -73.405,
   "population": 34588
 },
 {
   "id": 591,
   "city": "Huntsville",
   "state_id": "AL",
   "lat": 34.6981,
   "lng": -86.6412,
   "population": 349482
 },
 {
   "id": 592,
   "city": "Huntsville",
   "state_id": "TX",
   "lat": 30.7009,
   "lng": -95.5567,
   "population": 46202
 },
 {
   "id": 593,
   "city": "Hurst",
   "state_id": "TX",
   "lat": 32.8353,
   "lng": -97.1809,
   "population": 40053
 },
 {
   "id": 594,
   "city": "Hutchinson",
   "state_id": "KS",
   "lat": 38.0671,
   "lng": -97.9081,
   "population": 39995
 },
 {
   "id": 595,
   "city": "Idaho Falls",
   "state_id": "ID",
   "lat": 43.4871,
   "lng": -112.0362,
   "population": 108544
 },
 {
   "id": 596,
   "city": "Independence",
   "state_id": "MO",
   "lat": 39.0871,
   "lng": -94.3501,
   "population": 122218
 },
 {
   "id": 597,
   "city": "Indian Trail",
   "state_id": "NC",
   "lat": 35.0699,
   "lng": -80.6452,
   "population": 40325
 },
 {
   "id": 598,
   "city": "Indianapolis",
   "state_id": "IN",
   "lat": 39.7771,
   "lng": -86.1458,
   "population": 1729849
 },
 {
   "id": 599,
   "city": "Indio",
   "state_id": "CA",
   "lat": 33.7346,
   "lng": -116.2346,
   "population": 369654
 },
 {
   "id": 600,
   "city": "Inglewood",
   "state_id": "CA",
   "lat": 33.9566,
   "lng": -118.3444,
   "population": 106806
 },
 {
   "id": 601,
   "city": "Inver Grove Heights",
   "state_id": "MN",
   "lat": 44.8247,
   "lng": -93.0596,
   "population": 35673
 },
 {
   "id": 602,
   "city": "Iowa City",
   "state_id": "IA",
   "lat": 41.6559,
   "lng": -91.5303,
   "population": 130736
 },
 {
   "id": 603,
   "city": "Irvine",
   "state_id": "CA",
   "lat": 33.6772,
   "lng": -117.7738,
   "population": 304527
 },
 {
   "id": 604,
   "city": "Irving",
   "state_id": "TX",
   "lat": 32.8583,
   "lng": -96.9702,
   "population": 254962
 },
 {
   "id": 605,
   "city": "Issaquah",
   "state_id": "WA",
   "lat": 47.5439,
   "lng": -122.0471,
   "population": 39400
 },
 {
   "id": 606,
   "city": "Ithaca",
   "state_id": "NY",
   "lat": 42.4442,
   "lng": -76.5032,
   "population": 31359
 },
 {
   "id": 607,
   "city": "Jackson",
   "state_id": "MI",
   "lat": 42.2431,
   "lng": -84.4038,
   "population": 82775
 },
 {
   "id": 608,
   "city": "Jackson",
   "state_id": "MS",
   "lat": 32.3157,
   "lng": -90.2125,
   "population": 335171
 },
 {
   "id": 609,
   "city": "Jackson",
   "state_id": "TN",
   "lat": 35.6538,
   "lng": -88.8354,
   "population": 72836
 },
 {
   "id": 610,
   "city": "Jacksonville",
   "state_id": "FL",
   "lat": 30.3322,
   "lng": -81.6749,
   "population": 1288298
 },
 {
   "id": 611,
   "city": "Jacksonville",
   "state_id": "NC",
   "lat": 34.7289,
   "lng": -77.3941,
   "population": 111830
 },
 {
   "id": 612,
   "city": "Janesville",
   "state_id": "WI",
   "lat": 42.6854,
   "lng": -89.0135,
   "population": 71202
 },
 {
   "id": 613,
   "city": "Jefferson City",
   "state_id": "MO",
   "lat": 38.5676,
   "lng": -92.1759,
   "population": 42644
 },
 {
   "id": 614,
   "city": "Jeffersonville",
   "state_id": "IN",
   "lat": 38.3376,
   "lng": -85.7026,
   "population": 49771
 },
 {
   "id": 615,
   "city": "Jersey City",
   "state_id": "NJ",
   "lat": 40.7184,
   "lng": -74.0686,
   "population": 287899
 },
 {
   "id": 616,
   "city": "Johns Creek",
   "state_id": "GA",
   "lat": 34.0333,
   "lng": -84.2027,
   "population": 82230
 },
 {
   "id": 617,
   "city": "Johnson City",
   "state_id": "TN",
   "lat": 36.3406,
   "lng": -82.3806,
   "population": 131718
 },
 {
   "id": 618,
   "city": "Joliet",
   "state_id": "IL",
   "lat": 41.5188,
   "lng": -88.1499,
   "population": 150221
 },
 {
   "id": 619,
   "city": "Jonesboro",
   "state_id": "AR",
   "lat": 35.8212,
   "lng": -90.6791,
   "population": 78379
 },
 {
   "id": 620,
   "city": "Joplin",
   "state_id": "MO",
   "lat": 37.0757,
   "lng": -94.5018,
   "population": 90384
 },
 {
   "id": 621,
   "city": "Jupiter",
   "state_id": "FL",
   "lat": 26.92,
   "lng": -80.1128,
   "population": 60926
 },
 {
   "id": 622,
   "city": "Jurupa Valley",
   "state_id": "CA",
   "lat": 34.001,
   "lng": -117.4706,
   "population": 105672
 },
 {
   "id": 623,
   "city": "Kalamazoo",
   "state_id": "MI",
   "lat": 42.2749,
   "lng": -85.5882,
   "population": 200838
 },
 {
   "id": 624,
   "city": "Kankakee",
   "state_id": "IL",
   "lat": 41.102,
   "lng": -87.8643,
   "population": 66065
 },
 {
   "id": 625,
   "city": "Kannapolis",
   "state_id": "NC",
   "lat": 35.4764,
   "lng": -80.6408,
   "population": 53314
 },
 {
   "id": 626,
   "city": "Kansas City",
   "state_id": "KS",
   "lat": 39.1235,
   "lng": -94.7443,
   "population": 155438
 },
 {
   "id": 627,
   "city": "Kansas City",
   "state_id": "MO",
   "lat": 39.1238,
   "lng": -94.5541,
   "population": 1689556
 },
 {
   "id": 628,
   "city": "Kaysville",
   "state_id": "UT",
   "lat": 41.029,
   "lng": -111.9456,
   "population": 32714
 },
 {
   "id": 629,
   "city": "Kearney",
   "state_id": "NE",
   "lat": 40.7011,
   "lng": -99.0833,
   "population": 33809
 },
 {
   "id": 630,
   "city": "Kearns",
   "state_id": "UT",
   "lat": 40.6519,
   "lng": -112.0095,
   "population": 36862
 },
 {
   "id": 631,
   "city": "Kearny",
   "state_id": "NJ",
   "lat": 40.7528,
   "lng": -74.1202,
   "population": 41157
 },
 {
   "id": 632,
   "city": "Keizer",
   "state_id": "OR",
   "lat": 45.0028,
   "lng": -123.0243,
   "population": 39122
 },
 {
   "id": 633,
   "city": "Keller",
   "state_id": "TX",
   "lat": 32.9335,
   "lng": -97.2256,
   "population": 45320
 },
 {
   "id": 634,
   "city": "Ken Caryl",
   "state_id": "CO",
   "lat": 39.577,
   "lng": -105.1144,
   "population": 33505
 },
 {
   "id": 635,
   "city": "Kendale Lakes",
   "state_id": "FL",
   "lat": 25.7081,
   "lng": -80.4078,
   "population": 52661
 },
 {
   "id": 636,
   "city": "Kendall",
   "state_id": "FL",
   "lat": 25.6697,
   "lng": -80.3556,
   "population": 78402
 },
 {
   "id": 637,
   "city": "Kendall West",
   "state_id": "FL",
   "lat": 25.7065,
   "lng": -80.4388,
   "population": 35606
 },
 {
   "id": 638,
   "city": "Kenner",
   "state_id": "LA",
   "lat": 30.0109,
   "lng": -90.2549,
   "population": 65785
 },
 {
   "id": 639,
   "city": "Kennesaw",
   "state_id": "GA",
   "lat": 34.026,
   "lng": -84.6177,
   "population": 33360
 },
 {
   "id": 640,
   "city": "Kennewick",
   "state_id": "WA",
   "lat": 46.1978,
   "lng": -119.1732,
   "population": 259995
 },
 {
   "id": 641,
   "city": "Kenosha",
   "state_id": "WI",
   "lat": 42.5865,
   "lng": -87.8773,
   "population": 124297
 },
 {
   "id": 642,
   "city": "Kent",
   "state_id": "WA",
   "lat": 47.3887,
   "lng": -122.2128,
   "population": 135169
 },
 {
   "id": 643,
   "city": "Kentwood",
   "state_id": "MI",
   "lat": 42.8852,
   "lng": -85.5926,
   "population": 54042
 },
 {
   "id": 644,
   "city": "Kettering",
   "state_id": "OH",
   "lat": 39.6956,
   "lng": -84.1494,
   "population": 57707
 },
 {
   "id": 645,
   "city": "Killeen",
   "state_id": "TX",
   "lat": 31.0753,
   "lng": -97.7297,
   "population": 265921
 },
 {
   "id": 646,
   "city": "Kingman",
   "state_id": "AZ",
   "lat": 35.217,
   "lng": -114.0105,
   "population": 33052
 },
 {
   "id": 647,
   "city": "Kingsport",
   "state_id": "TN",
   "lat": 36.5224,
   "lng": -82.5454,
   "population": 101323
 },
 {
   "id": 648,
   "city": "Kirkland",
   "state_id": "WA",
   "lat": 47.697,
   "lng": -122.2057,
   "population": 92015
 },
 {
   "id": 649,
   "city": "Kiryas Joel",
   "state_id": "NY",
   "lat": 41.3411,
   "lng": -74.1667,
   "population": 34368
 },
 {
   "id": 650,
   "city": "Kissimmee",
   "state_id": "FL",
   "lat": 28.3041,
   "lng": -81.4169,
   "population": 431618
 },
 {
   "id": 651,
   "city": "Knoxville",
   "state_id": "TN",
   "lat": 35.9692,
   "lng": -83.9496,
   "population": 615829
 },
 {
   "id": 652,
   "city": "Kokomo",
   "state_id": "IN",
   "lat": 40.464,
   "lng": -86.1277,
   "population": 59534
 },
 {
   "id": 653,
   "city": "Kyle",
   "state_id": "TX",
   "lat": 29.9932,
   "lng": -97.8852,
   "population": 48484
 },
 {
   "id": 654,
   "city": "La Crosse",
   "state_id": "WI",
   "lat": 43.8241,
   "lng": -91.2268,
   "population": 94627
 },
 {
   "id": 655,
   "city": "La Habra",
   "state_id": "CA",
   "lat": 33.9282,
   "lng": -117.9515,
   "population": 62904
 },
 {
   "id": 656,
   "city": "La Mesa",
   "state_id": "CA",
   "lat": 32.7703,
   "lng": -117.0204,
   "population": 60888
 },
 {
   "id": 657,
   "city": "La Mirada",
   "state_id": "CA",
   "lat": 33.9025,
   "lng": -118.0093,
   "population": 47644
 },
 {
   "id": 658,
   "city": "La Porte",
   "state_id": "TX",
   "lat": 29.6689,
   "lng": -95.0484,
   "population": 35782
 },
 {
   "id": 659,
   "city": "La Presa",
   "state_id": "CA",
   "lat": 32.711,
   "lng": -117.0027,
   "population": 38618
 },
 {
   "id": 660,
   "city": "La Puente",
   "state_id": "CA",
   "lat": 34.0323,
   "lng": -117.9533,
   "population": 37835
 },
 {
   "id": 661,
   "city": "La Quinta",
   "state_id": "CA",
   "lat": 33.6536,
   "lng": -116.2785,
   "population": 37933
 },
 {
   "id": 662,
   "city": "La Vergne",
   "state_id": "TN",
   "lat": 36.02,
   "lng": -86.5586,
   "population": 38553
 },
 {
   "id": 663,
   "city": "La Verne",
   "state_id": "CA",
   "lat": 34.1207,
   "lng": -117.7703,
   "population": 31239
 },
 {
   "id": 664,
   "city": "Lacey",
   "state_id": "WA",
   "lat": 47.0462,
   "lng": -122.7933,
   "population": 56263
 },
 {
   "id": 665,
   "city": "Lafayette",
   "state_id": "CO",
   "lat": 39.9946,
   "lng": -105.0998,
   "population": 98889
 },
 {
   "id": 666,
   "city": "Lafayette",
   "state_id": "IN",
   "lat": 40.3991,
   "lng": -86.8593,
   "population": 160543
 },
 {
   "id": 667,
   "city": "Lafayette",
   "state_id": "LA",
   "lat": 30.2082,
   "lng": -92.0325,
   "population": 237565
 },
 {
   "id": 668,
   "city": "LaGrange",
   "state_id": "GA",
   "lat": 33.0274,
   "lng": -85.0384,
   "population": 31173
 },
 {
   "id": 669,
   "city": "Laguna Hills",
   "state_id": "CA",
   "lat": 33.5918,
   "lng": -117.6991,
   "population": 31170
 },
 {
   "id": 670,
   "city": "Laguna Niguel",
   "state_id": "CA",
   "lat": 33.5275,
   "lng": -117.705,
   "population": 64259
 },
 {
   "id": 671,
   "city": "Lake Charles",
   "state_id": "LA",
   "lat": 30.201,
   "lng": -93.2111,
   "population": 151109
 },
 {
   "id": 672,
   "city": "Lake Elsinore",
   "state_id": "CA",
   "lat": 33.6847,
   "lng": -117.3344,
   "population": 69993
 },
 {
   "id": 673,
   "city": "Lake Forest",
   "state_id": "CA",
   "lat": 33.6605,
   "lng": -117.6714,
   "population": 85583
 },
 {
   "id": 674,
   "city": "Lake Havasu City",
   "state_id": "AZ",
   "lat": 34.5006,
   "lng": -114.3113,
   "population": 57294
 },
 {
   "id": 675,
   "city": "Lake Magdalene",
   "state_id": "FL",
   "lat": 28.0875,
   "lng": -82.4791,
   "population": 31546
 },
 {
   "id": 676,
   "city": "Lake Oswego",
   "state_id": "OR",
   "lat": 45.4129,
   "lng": -122.7004,
   "population": 40457
 },
 {
   "id": 677,
   "city": "Lake Ridge",
   "state_id": "VA",
   "lat": 38.6847,
   "lng": -77.3066,
   "population": 44720
 },
 {
   "id": 678,
   "city": "Lake Stevens",
   "state_id": "WA",
   "lat": 48.0024,
   "lng": -122.0953,
   "population": 38816
 },
 {
   "id": 679,
   "city": "Lakeland",
   "state_id": "FL",
   "lat": 28.0557,
   "lng": -81.9545,
   "population": 280346
 },
 {
   "id": 680,
   "city": "Lakeside",
   "state_id": "FL",
   "lat": 30.1356,
   "lng": -81.7674,
   "population": 30973
 },
 {
   "id": 681,
   "city": "Lakeville",
   "state_id": "MN",
   "lat": 44.6774,
   "lng": -93.252,
   "population": 70696
 },
 {
   "id": 682,
   "city": "Lakewood",
   "state_id": "CA",
   "lat": 33.8471,
   "lng": -118.1222,
   "population": 81499
 },
 {
   "id": 683,
   "city": "Lakewood",
   "state_id": "CO",
   "lat": 39.6977,
   "lng": -105.1172,
   "population": 156149
 },
 {
   "id": 684,
   "city": "Lakewood",
   "state_id": "OH",
   "lat": 41.4822,
   "lng": -81.8008,
   "population": 50605
 },
 {
   "id": 685,
   "city": "Lakewood",
   "state_id": "WA",
   "lat": 47.1628,
   "lng": -122.5299,
   "population": 63142
 },
 {
   "id": 686,
   "city": "Lakewood Ranch",
   "state_id": "FL",
   "lat": 27.4185,
   "lng": -82.3948,
   "population": 34346
 },
 {
   "id": 687,
   "city": "Lancaster",
   "state_id": "CA",
   "lat": 34.6935,
   "lng": -118.1753,
   "population": 171465
 },
 {
   "id": 688,
   "city": "Lancaster",
   "state_id": "OH",
   "lat": 39.7248,
   "lng": -82.6049,
   "population": 40616
 },
 {
   "id": 689,
   "city": "Lancaster",
   "state_id": "PA",
   "lat": 40.042,
   "lng": -76.3012,
   "population": 402476
 },
 {
   "id": 690,
   "city": "Lancaster",
   "state_id": "TX",
   "lat": 32.5922,
   "lng": -96.7739,
   "population": 40958
 },
 {
   "id": 691,
   "city": "Land O' Lakes",
   "state_id": "FL",
   "lat": 28.2075,
   "lng": -82.4476,
   "population": 40843
 },
 {
   "id": 692,
   "city": "Lansing",
   "state_id": "MI",
   "lat": 42.7142,
   "lng": -84.5601,
   "population": 322561
 },
 {
   "id": 693,
   "city": "Laramie",
   "state_id": "WY",
   "lat": 41.3099,
   "lng": -105.6085,
   "population": 31735
 },
 {
   "id": 694,
   "city": "Laredo",
   "state_id": "TX",
   "lat": 27.5625,
   "lng": -99.4874,
   "population": 255293
 },
 {
   "id": 695,
   "city": "Largo",
   "state_id": "FL",
   "lat": 27.9088,
   "lng": -82.7712,
   "population": 82541
 },
 {
   "id": 696,
   "city": "Las Cruces",
   "state_id": "NM",
   "lat": 32.3265,
   "lng": -106.7893,
   "population": 140915
 },
 {
   "id": 697,
   "city": "Las Vegas",
   "state_id": "NV",
   "lat": 36.2333,
   "lng": -115.2654,
   "population": 2248047
 },
 {
   "id": 698,
   "city": "Lauderdale Lakes",
   "state_id": "FL",
   "lat": 26.1682,
   "lng": -80.2017,
   "population": 35914
 },
 {
   "id": 699,
   "city": "Lauderhill",
   "state_id": "FL",
   "lat": 26.1605,
   "lng": -80.2241,
   "population": 73987
 },
 {
   "id": 700,
   "city": "Lawndale",
   "state_id": "CA",
   "lat": 33.8884,
   "lng": -118.3531,
   "population": 31553
 },
 {
   "id": 701,
   "city": "Lawrence",
   "state_id": "IN",
   "lat": 39.8674,
   "lng": -85.9904,
   "population": 49218
 },
 {
   "id": 702,
   "city": "Lawrence",
   "state_id": "KS",
   "lat": 38.9597,
   "lng": -95.2642,
   "population": 96061
 },
 {
   "id": 703,
   "city": "Lawrence",
   "state_id": "MA",
   "lat": 42.7002,
   "lng": -71.1626,
   "population": 88067
 },
 {
   "id": 704,
   "city": "Lawrenceville",
   "state_id": "GA",
   "lat": 33.9523,
   "lng": -83.9932,
   "population": 30465
 },
 {
   "id": 705,
   "city": "Lawton",
   "state_id": "OK",
   "lat": 34.6175,
   "lng": -98.4202,
   "population": 91023
 },
 {
   "id": 706,
   "city": "Layton",
   "state_id": "UT",
   "lat": 41.077,
   "lng": -111.962,
   "population": 81726
 },
 {
   "id": 707,
   "city": "League City",
   "state_id": "TX",
   "lat": 29.4874,
   "lng": -95.1087,
   "population": 113469
 },
 {
   "id": 708,
   "city": "Leander",
   "state_id": "TX",
   "lat": 30.5728,
   "lng": -97.8618,
   "population": 62491
 },
 {
   "id": 709,
   "city": "Leavenworth",
   "state_id": "KS",
   "lat": 39.3239,
   "lng": -94.924,
   "population": 37193
 },
 {
   "id": 710,
   "city": "Leawood",
   "state_id": "KS",
   "lat": 38.9075,
   "lng": -94.6258,
   "population": 33784
 },
 {
   "id": 711,
   "city": "Lebanon",
   "state_id": "PA",
   "lat": 40.3412,
   "lng": -76.4228,
   "population": 78147
 },
 {
   "id": 712,
   "city": "Lebanon",
   "state_id": "TN",
   "lat": 36.204,
   "lng": -86.3481,
   "population": 39562
 },
 {
   "id": 713,
   "city": "Lee's Summit",
   "state_id": "MO",
   "lat": 38.9171,
   "lng": -94.3816,
   "population": 101728
 },
 {
   "id": 714,
   "city": "Leesburg",
   "state_id": "FL",
   "lat": 28.7672,
   "lng": -81.8962,
   "population": 166200
 },
 {
   "id": 715,
   "city": "Leesburg",
   "state_id": "VA",
   "lat": 39.1057,
   "lng": -77.5544,
   "population": 48465
 },
 {
   "id": 716,
   "city": "Lehi",
   "state_id": "UT",
   "lat": 40.4136,
   "lng": -111.8725,
   "population": 77110
 },
 {
   "id": 717,
   "city": "Lehigh Acres",
   "state_id": "FL",
   "lat": 26.612,
   "lng": -81.6388,
   "population": 124440
 },
 {
   "id": 718,
   "city": "Lenexa",
   "state_id": "KS",
   "lat": 38.9609,
   "lng": -94.8018,
   "population": 57497
 },
 {
   "id": 719,
   "city": "Leominster",
   "state_id": "MA",
   "lat": 42.5209,
   "lng": -71.7717,
   "population": 111856
 },
 {
   "id": 720,
   "city": "Levittown",
   "state_id": "NY",
   "lat": 40.7241,
   "lng": -73.5125,
   "population": 50804
 },
 {
   "id": 721,
   "city": "Levittown",
   "state_id": "PA",
   "lat": 40.1533,
   "lng": -74.8531,
   "population": 51152
 },
 {
   "id": 722,
   "city": "Lewiston",
   "state_id": "ID",
   "lat": 46.3934,
   "lng": -116.9933,
   "population": 34270
 },
 {
   "id": 723,
   "city": "Lewiston",
   "state_id": "ME",
   "lat": 44.0915,
   "lng": -70.1681,
   "population": 37577
 },
 {
   "id": 724,
   "city": "Lewisville",
   "state_id": "TX",
   "lat": 33.0454,
   "lng": -96.9815,
   "population": 125028
 },
 {
   "id": 725,
   "city": "Lexington",
   "state_id": "KY",
   "lat": 38.0423,
   "lng": -84.4587,
   "population": 321276
 },
 {
   "id": 726,
   "city": "Liberty",
   "state_id": "MO",
   "lat": 39.2394,
   "lng": -94.4191,
   "population": 30299
 },
 {
   "id": 727,
   "city": "Lima",
   "state_id": "OH",
   "lat": 40.741,
   "lng": -84.112,
   "population": 35555
 },
 {
   "id": 728,
   "city": "Lincoln",
   "state_id": "CA",
   "lat": 38.8774,
   "lng": -121.2937,
   "population": 50131
 },
 {
   "id": 729,
   "city": "Lincoln",
   "state_id": "NE",
   "lat": 40.8099,
   "lng": -96.6784,
   "population": 290531
 },
 {
   "id": 730,
   "city": "Lincoln Park",
   "state_id": "MI",
   "lat": 42.2432,
   "lng": -83.1811,
   "population": 39807
 },
 {
   "id": 731,
   "city": "Linden",
   "state_id": "NJ",
   "lat": 40.6251,
   "lng": -74.2383,
   "population": 43478
 },
 {
   "id": 732,
   "city": "Linton Hall",
   "state_id": "VA",
   "lat": 38.7551,
   "lng": -77.575,
   "population": 42702
 },
 {
   "id": 733,
   "city": "Little Elm",
   "state_id": "TX",
   "lat": 33.1858,
   "lng": -96.9295,
   "population": 48241
 },