[
 {
   "id": 0,
   "city": "New York",
   "state_id": "NY",
   "lat": 40.6943,
   "lng": -73.9249,
   "population": 18908608
 },
 {
   "id": 1,
   "city": "Los Angeles",
   "state_id": "CA",
   "lat": 34.1141,
   "lng": -118.4068,
   "population": 11922389
 },
 {
   "id": 2,
   "city": "Chicago",
   "state_id": "IL",
   "lat": 41.8375,
   "lng": -87.6866,
   "population": 8497759
 },
 {
   "id": 3,
   "city": "Miami",
   "state_id": "FL",
   "lat": 25.784,
   "lng": -80.2101,
   "population": 6080145
 },
 {
   "id": 4,
   "city": "Houston",
   "state_id": "TX",
   "lat": 29.786,
   "lng": -95.3885,
   "population": 5970127
 },
 {
   "id": 5,
   "city": "Dallas",
   "state_id": "TX",
   "lat": 32.7935,
   "lng": -96.7667,
   "population": 5830932
 },
 {
   "id": 6,
   "city": "Philadelphia",
   "state_id": "PA",
   "lat": 40.0077,
   "lng": -75.1339,
   "population": 5683533
 },
 {
   "id": 7,
   "city": "Atlanta",
   "state_id": "GA",
   "lat": 33.7628,
   "lng": -84.422,
   "population": 5180179
 },
 {
   "id": 8,
   "city": "Washington",
   "state_id": "DC",
   "lat": 38.9047,
   "lng": -77.0163,
   "population": 5116378
 },
 {
   "id": 9,
   "city": "Boston",
   "state_id": "MA",
   "lat": 42.3188,
   "lng": -71.0852,
   "population": 4328315
 },
 {
   "id": 10,
   "city": "Phoenix",
   "state_id": "AZ",
   "lat": 33.5722,
   "lng": -112.0892,
   "population": 4064275
 },
 {
   "id": 11,
   "city": "Detroit",
   "state_id": "MI",
   "lat": 42.3834,
   "lng": -83.1024,
   "population": 3725908
 },
 {
   "id": 12,
   "city": "Seattle",
   "state_id": "WA",
   "lat": 47.6211,
   "lng": -122.3244,
   "population": 3561397
 },
 {
   "id": 13,
   "city": "San Francisco",
   "state_id": "CA",
   "lat": 37.7558,
   "lng": -122.4449,
   "population": 3364979
 },
 {
   "id": 14,
   "city": "San Diego",
   "state_id": "CA",
   "lat": 32.8313,
   "lng": -117.1222,
   "population": 3046560
 },
 {
   "id": 15,
   "city": "Minneapolis",
   "state_id": "MN",
   "lat": 44.9635,
   "lng": -93.2678,
   "population": 2892569
 },
 {
   "id": 16,
   "city": "Tampa",
   "state_id": "FL",
   "lat": 27.9945,
   "lng": -82.4447,
   "population": 2861173
 },
 {
   "id": 17,
   "city": "Brooklyn",
   "state_id": "NY",
   "lat": 40.6501,
   "lng": -73.9496,
   "population": 2736074
 },
 {
   "id": 18,
   "city": "Denver",
   "state_id": "CO",
   "lat": 39.762,
   "lng": -104.8758,
   "population": 2687458
 },
 {
   "id": 19,
   "city": "Queens",
   "state_id": "NY",
   "lat": 40.7498,
   "lng": -73.7976,
   "population": 2405464
 },
 {
   "id": 20,
   "city": "Riverside",
   "state_id": "CA",
   "lat": 33.9381,
   "lng": -117.3949,
   "population": 2332836
 },
 {
   "id": 21,
   "city": "Las Vegas",
   "state_id": "NV",
   "lat": 36.2333,
   "lng": -115.2654,
   "population": 2248047
 },
 {
   "id": 22,
   "city": "Baltimore",
   "state_id": "MD",
   "lat": 39.3051,
   "lng": -76.6144,
   "population": 2196524
 },
 {
   "id": 23,
   "city": "St. Louis",
   "state_id": "MO",
   "lat": 38.6359,
   "lng": -90.2451,
   "population": 2130881
 },
 {
   "id": 24,
   "city": "Portland",
   "state_id": "OR",
   "lat": 45.5371,
   "lng": -122.65,
   "population": 2095808
 },
 {
   "id": 25,
   "city": "San Antonio",
   "state_id": "TX",
   "lat": 29.4632,
   "lng": -98.5238,
   "population": 2058444
 },
 {
   "id": 26,
   "city": "Sacramento",
   "state_id": "CA",
   "lat": 38.5677,
   "lng": -121.4685,
   "population": 1957738
 },
 {
   "id": 27,
   "city": "Austin",
   "state_id": "TX",
   "lat": 30.3005,
   "lng": -97.7522,
   "population": 1905945
 },
 {
   "id": 28,
   "city": "Orlando",
   "state_id": "FL",
   "lat": 28.4773,
   "lng": -81.337,
   "population": 1882705
 },
 {
   "id": 29,
   "city": "San Jose",
   "state_id": "CA",
   "lat": 37.3012,
   "lng": -121.848,
   "population": 1771413
 },
 {
   "id": 30,
   "city": "Pittsburgh",
   "state_id": "PA",
   "lat": 40.4397,
   "lng": -79.9763,
   "population": 1749091
 },
 {
   "id": 31,
   "city": "Indianapolis",
   "state_id": "IN",
   "lat": 39.7771,
   "lng": -86.1458,
   "population": 1729849
 },
 {
   "id": 32,
   "city": "Manhattan",
   "state_id": "NY",
   "lat": 40.7834,
   "lng": -73.9662,
   "population": 1694263
 },
 {
   "id": 33,
   "city": "Cincinnati",
   "state_id": "OH",
   "lat": 39.1413,
   "lng": -84.506,
   "population": 1692702
 },
 {
   "id": 34,
   "city": "Kansas City",
   "state_id": "MO",
   "lat": 39.1238,
   "lng": -94.5541,
   "population": 1689556
 },
 {
   "id": 35,
   "city": "Cleveland",
   "state_id": "OH",
   "lat": 41.4764,
   "lng": -81.6805,
   "population": 1680247
 },
 {
   "id": 36,
   "city": "Columbus",
   "state_id": "OH",
   "lat": 39.9862,
   "lng": -82.9855,
   "population": 1572546
 },
 {
   "id": 37,
   "city": "Bronx",
   "state_id": "NY",
   "lat": 40.8501,
   "lng": -73.8662,
   "population": 1472654
 },
 {
   "id": 38,
   "city": "Virginia Beach",
   "state_id": "VA",
   "lat": 36.7335,
   "lng": -76.0435,
   "population": 1443020
 },
 {
   "id": 39,
   "city": "Charlotte",
   "state_id": "NC",
   "lat": 35.2083,
   "lng": -80.8303,
   "population": 1427444
 },
 {
   "id": 40,
   "city": "Milwaukee",
   "state_id": "WI",
   "lat": 43.0642,
   "lng": -87.9675,
   "population": 1290940
 },
 {
   "id": 41,
   "city": "Providence",
   "state_id": "RI",
   "lat": 41.823,
   "lng": -71.4187,
   "population": 1290271
 },
 {
   "id": 42,
   "city": "Jacksonville",
   "state_id": "FL",
   "lat": 30.3322,
   "lng": -81.6749,
   "population": 1288298
 },
 {
   "id": 43,
   "city": "Nashville",
   "state_id": "TN",
   "lat": 36.1715,
   "lng": -86.7842,
   "population": 1177657
 },
 {
   "id": 44,
   "city": "Salt Lake City",
   "state_id": "UT",
   "lat": 40.7776,
   "lng": -111.9311,
   "population": 1173879
 },
 {
   "id": 45,
   "city": "Raleigh",
   "state_id": "NC",
   "lat": 35.8324,
   "lng": -78.6429,
   "population": 1163152
 },
 {
   "id": 46,
   "city": "Richmond",
   "state_id": "VA",
   "lat": 37.5295,
   "lng": -77.4756,
   "population": 1073223
 },
 {
   "id": 47,
   "city": "Memphis",
   "state_id": "TN",
   "lat": 35.1087,
   "lng": -89.9663,
   "population": 1037998
 },
 {
   "id": 48,
   "city": "Oklahoma City",
   "state_id": "OK",
   "lat": 35.4676,
   "lng": -97.5136,
   "population": 998806
 },
 {
   "id": 49,
   "city": "Hartford",
   "state_id": "CT",
   "lat": 41.7661,
   "lng": -72.6834,
   "population": 974684
 },
 {
   "id": 50,
   "city": "Louisville",
   "state_id": "KY",
   "lat": 38.1663,
   "lng": -85.6485,
   "population": 963812
 },
 {
   "id": 51,
   "city": "Buffalo",
   "state_id": "NY",
   "lat": 42.9018,
   "lng": -78.8487,
   "population": 944589
 },
 {
   "id": 52,
   "city": "New Orleans",
   "state_id": "LA",
   "lat": 30.0687,
   "lng": -89.9288,
   "population": 932759
 },
 {
   "id": 53,
   "city": "Fort Worth",
   "state_id": "TX",
   "lat": 32.7817,
   "lng": -97.3474,
   "population": 924663
 },
 {
   "id": 54,
   "city": "Bridgeport",
   "state_id": "CT",
   "lat": 41.1918,
   "lng": -73.1954,
   "population": 908251
 },
 {
   "id": 55,
   "city": "Tucson",
   "state_id": "AZ",
   "lat": 32.1541,
   "lng": -110.8787,
   "population": 878320
 },
 {
   "id": 56,
   "city": "El Paso",
   "state_id": "TX",
   "lat": 31.8476,
   "lng": -106.43,
   "population": 865270
 },
 {
   "id": 57,
   "city": "Omaha",
   "state_id": "NE",
   "lat": 41.2627,
   "lng": -96.0529,
   "population": 821345
 },
 {
   "id": 58,
   "city": "McAllen",
   "state_id": "TX",
   "lat": 26.2252,
   "lng": -98.2467,
   "population": 797341
 },
 {
   "id": 59,
   "city": "Birmingham",
   "state_id": "AL",
   "lat": 33.5279,
   "lng": -86.7971,
   "population": 782111
 },
 {
   "id": 60,
   "city": "Albuquerque",
   "state_id": "NM",
   "lat": 35.1054,
   "lng": -106.6465,
   "population": 769986
 },
 {
   "id": 61,
   "city": "Tulsa",
   "state_id": "OK",
   "lat": 36.1283,
   "lng": -95.9042,
   "population": 731743
 },
 {
   "id": 62,
   "city": "Fresno",
   "state_id": "CA",
   "lat": 36.783,
   "lng": -119.7939,
   "population": 725276
 },
 {
   "id": 63,
   "city": "Charleston",
   "state_id": "SC",
   "lat": 32.8168,
   "lng": -79.9687,
   "population": 706884
 },
 {
   "id": 64,
   "city": "Rochester",
   "state_id": "NY",
   "lat": 43.168,
   "lng": -77.6162,
   "population": 699921
 },
 {
   "id": 65,
   "city": "Dayton",
   "state_id": "OH",
   "lat": 39.7805,
   "lng": -84.2003,
   "population": 668825
 },
 {
   "id": 66,
   "city": "Cape Coral",
   "state_id": "FL",
   "lat": 26.6443,
   "lng": -81.9957,
   "population": 654405
 },
 {
   "id": 67,
   "city": "Mission Viejo",
   "state_id": "CA",
   "lat": 33.6096,
   "lng": -117.6551,
   "population": 642211
 },
 {
   "id": 68,
   "city": "Colorado Springs",
   "state_id": "CO",
   "lat": 38.8674,
   "lng": -104.7605,
   "population": 638194
 },
 {
   "id": 69,
   "city": "Baton Rouge",
   "state_id": "LA",
   "lat": 30.442,
   "lng": -91.1311,
   "population": 635671
 },
 {
   "id": 70,
   "city": "Allentown",
   "state_id": "PA",
   "lat": 40.5961,
   "lng": -75.4756,
   "population": 627863
 },
 {
   "id": 71,
   "city": "Ogden",
   "state_id": "UT",
   "lat": 41.2279,
   "lng": -111.9682,
   "population": 622918
 },
 {
   "id": 72,
   "city": "Provo",
   "state_id": "UT",
   "lat": 40.2457,
   "lng": -111.6457,
   "population": 619218
 },
 {
   "id": 73,
   "city": "Knoxville",
   "state_id": "TN",
   "lat": 35.9692,
   "lng": -83.9496,
   "population": 615829
 },
 {
   "id": 74,
   "city": "Grand Rapids",
   "state_id": "MI",
   "lat": 42.9619,
   "lng": -85.6562,
   "population": 609023
 },
 {
   "id": 75,
   "city": "Columbia",
   "state_id": "SC",
   "lat": 34.0378,
   "lng": -80.9036,
   "population": 604065
 },
 {
   "id": 76,
   "city": "Albany",
   "state_id": "NY",
   "lat": 42.6664,
   "lng": -73.7987,
   "population": 590694
 },
 {
   "id": 77,
   "city": "Bakersfield",
   "state_id": "CA",
   "lat": 35.3529,
   "lng": -119.0359,
   "population": 571992
 },
 {
   "id": 78,
   "city": "New Haven",
   "state_id": "CT",
   "lat": 41.3113,
   "lng": -72.9246,
   "population": 565572
 },
 {
   "id": 79,
   "city": "Des Moines",
   "state_id": "IA",
   "lat": 41.5725,
   "lng": -93.6105,
   "population": 548926
 },
 {
   "id": 80,
   "city": "Akron",
   "state_id": "OH",
   "lat": 41.0798,
   "lng": -81.5219,
   "population": 541945
 },
 {
   "id": 81,
   "city": "Palm Bay",
   "state_id": "FL",
   "lat": 27.9631,
   "lng": -80.6593,
   "population": 534348
 },
 {
   "id": 82,
   "city": "Concord",
   "state_id": "CA",
   "lat": 37.9722,
   "lng": -122.0016,
   "population": 531175
 },
 {
   "id": 83,
   "city": "Wichita",
   "state_id": "KS",
   "lat": 37.6895,
   "lng": -97.3443,
   "population": 509003
 },
 {
   "id": 84,
   "city": "Mesa",
   "state_id": "AZ",
   "lat": 33.4015,
   "lng": -111.7178,
   "population": 503390
 },
 {
   "id": 85,
   "city": "Harrisburg",
   "state_id": "PA",
   "lat": 40.2752,
   "lng": -76.8843,
   "population": 498329
 },
 {
   "id": 86,
   "city": "Staten Island",
   "state_id": "NY",
   "lat": 40.5834,
   "lng": -74.1496,
   "population": 495747
 },
 {
   "id": 87,
   "city": "Toledo",
   "state_id": "OH",
   "lat": 41.6638,
   "lng": -83.5827,
   "population": 493302
 },
 {
   "id": 88,
   "city": "Worcester",
   "state_id": "MA",
   "lat": 42.2705,
   "lng": -71.8079,
   "population": 486486
 },
 {
   "id": 89,
   "city": "Long Beach",
   "state_id": "CA",
   "lat": 33.7977,
   "lng": -118.167,
   "population": 462293
 },
 {
   "id": 90,
   "city": "Port St. Lucie",
   "state_id": "FL",
   "lat": 27.2796,
   "lng": -80.3884,
   "population": 462047
 },
 {
   "id": 91,
   "city": "Little Rock",
   "state_id": "AR",
   "lat": 34.7256,
   "lng": -92.3577,
   "population": 459409
 },
 {
   "id": 92,
   "city": "Reno",
   "state_id": "NV",
   "lat": 39.5497,
   "lng": -119.8483,
   "population": 457702
 },
 {
   "id": 93,
   "city": "Spokane",
   "state_id": "WA",
   "lat": 47.6671,
   "lng": -117.433,
   "population": 456219
 },
 {
   "id": 94,
   "city": "Madison",
   "state_id": "WI",
   "lat": 43.0822,
   "lng": -89.393,
   "population": 451652
 },
 {
   "id": 95,
   "city": "Boise",
   "state_id": "ID",
   "lat": 43.6005,
   "lng": -116.2308,
   "population": 449776
 },
 {
   "id": 96,
   "city": "Bonita Springs",
   "state_id": "FL",
   "lat": 26.3558,
   "lng": -81.7859,
   "population": 449527
 },
 {
   "id": 97,
   "city": "Denton",
   "state_id": "TX",
   "lat": 33.2175,
   "lng": -97.1418,
   "population": 438492
 },
 {
   "id": 98,
   "city": "Oakland",
   "state_id": "CA",
   "lat": 37.7904,
   "lng": -122.2166,
   "population": 437825
 },
 {
   "id": 99,
   "city": "Springfield",
   "state_id": "MA",
   "lat": 42.1155,
   "lng": -72.5395,
   "population": 437752
 },
 {
   "id": 100,
   "city": "Augusta",
   "state_id": "GA",
   "lat": 33.3645,
   "lng": -82.0708,
   "population": 437257
 },
 {
   "id": 101,
   "city": "Kissimmee",
   "state_id": "FL",
   "lat": 28.3041,
   "lng": -81.4169,
   "population": 431618
 },
 {
   "id": 102,
   "city": "Winston-Salem",
   "state_id": "NC",
   "lat": 36.1029,
   "lng": -80.261,
   "population": 427706
 },
 {
   "id": 103,
   "city": "Stockton",
   "state_id": "CA",
   "lat": 37.9765,
   "lng": -121.3109,
   "population": 413637
 },
 {
   "id": 104,
   "city": "Syracuse",
   "state_id": "NY",
   "lat": 43.0407,
   "lng": -76.1437,
   "population": 410732
 },
 {
   "id": 105,
   "city": "Chattanooga",
   "state_id": "TN",
   "lat": 35.066,
   "lng": -85.2481,
   "population": 406849
 },
 {
   "id": 106,
   "city": "Lancaster",
   "state_id": "PA",
   "lat": 40.042,
   "lng": -76.3012,
   "population": 402476
 },
 {
   "id": 107,
   "city": "Greenville",
   "state_id": "SC",
   "lat": 34.8354,
   "lng": -82.3646,
   "population": 401443
 },
 {
   "id": 108,
   "city": "Durham",
   "state_id": "NC",
   "lat": 35.9792,
   "lng": -78.9022,
   "population": 399616
 },
 {
   "id": 109,
   "city": "Pensacola",
   "state_id": "FL",
   "lat": 30.4413,
   "lng": -87.1911,
   "population": 398813
 },
 {
   "id": 110,
   "city": "Fayetteville",
   "state_id": "AR",
   "lat": 36.0714,
   "lng": -94.1661,
   "population": 394650
 },
 {
   "id": 111,
   "city": "Arlington",
   "state_id": "TX",
   "lat": 32.6998,
   "lng": -97.125,
   "population": 393469
 },
 {
   "id": 112,
   "city": "Aurora",
   "state_id": "CO",
   "lat": 39.7083,
   "lng": -104.7237,
   "population": 387349
 },
 {
   "id": 113,
   "city": "Oxnard",
   "state_id": "CA",
   "lat": 34.1964,
   "lng": -119.1815,
   "population": 369962
 },
 {
   "id": 114,
   "city": "Indio",
   "state_id": "CA",
   "lat": 33.7346,
   "lng": -116.2346,
   "population": 369654
 },
 {
   "id": 115,
   "city": "Scranton",
   "state_id": "PA",
   "lat": 41.4044,
   "lng": -75.6649,
   "population": 366334
 },
 {
   "id": 116,
   "city": "Victorville",
   "state_id": "CA",
   "lat": 34.5277,
   "lng": -117.3536,
   "population": 364015
 },
 {
   "id": 117,
   "city": "Trenton",
   "state_id": "NJ",
   "lat": 40.2237,
   "lng": -74.7641,
   "population": 362179
 },
 {
   "id": 118,
   "city": "Modesto",
   "state_id": "CA",
   "lat": 37.6375,
   "lng": -121.0028,
   "population": 354183
 },
 {
   "id": 119,
   "city": "Huntsville",
   "state_id": "AL",
   "lat": 34.6981,
   "lng": -86.6412,
   "population": 349482
 },
 {
   "id": 120,
   "city": "Honolulu",
   "state_id": "HI",
   "lat": 21.3294,
   "lng": -157.846,
   "population": 348547
 },
 {
   "id": 121,
   "city": "Greensboro",
   "state_id": "NC",
   "lat": 36.0956,
   "lng": -79.8271,
   "population": 347130
 },
 {
   "id": 122,
   "city": "Anaheim",
   "state_id": "CA",
   "lat": 33.839,
   "lng": -117.8574,
   "population": 347111
 },
 {
   "id": 123,
   "city": "Corpus Christi",
   "state_id": "TX",
   "lat": 27.7254,
   "lng": -97.3767,
   "population": 337230
 },
 {
   "id": 124,
   "city": "Fort Wayne",
   "state_id": "IN",
   "lat": 41.0888,
   "lng": -85.1436,
   "population": 337163
 },
 {
   "id": 125,
   "city": "Fort Collins",
   "state_id": "CO",
   "lat": 40.5477,
   "lng": -105.0656,
   "population": 335398
 },
 {
   "id": 126,
   "city": "Jackson",
   "state_id": "MS",
   "lat": 32.3157,
   "lng": -90.2125,
   "population": 335171
 },
 {
   "id": 127,
   "city": "Myrtle Beach",
   "state_id": "SC",
   "lat": 33.7094,
   "lng": -78.8844,
   "population": 332181
 },
 {
   "id": 128,
   "city": "Fayetteville",
   "state_id": "NC",
   "lat": 35.085,
   "lng": -78.9772,
   "population": 328804
 },
 {
   "id": 129,
   "city": "Antioch",
   "state_id": "CA",
   "lat": 37.9787,
   "lng": -121.796,
   "population": 327216
 },
 {
   "id": 130,
   "city": "Lansing",
   "state_id": "MI",
   "lat": 42.7142,
   "lng": -84.5601,
   "population": 322561
 },
 {
   "id": 131,
   "city": "Lexington",
   "state_id": "KY",
   "lat": 38.0423,
   "lng": -84.4587,
   "population": 321276
 },
 {
   "id": 132,
   "city": "Mobile",
   "state_id": "AL",
   "lat": 30.6782,
   "lng": -88.1162,
   "population": 320855
 },
 {
   "id": 133,
   "city": "Youngstown",
   "state_id": "OH",
   "lat": 41.0993,
   "lng": -80.6463,
   "population": 319065
 },
 {
   "id": 134,
   "city": "Henderson",
   "state_id": "NV",
   "lat": 36.0133,
   "lng": -115.0381,
   "population": 318063
 },
 {
   "id": 135,
   "city": "Savannah",
   "state_id": "GA",
   "lat": 32.0286,
   "lng": -81.1821,
   "population": 316050
 },
 {
   "id": 136,
   "city": "Poughkeepsie",
   "state_id": "NY",
   "lat": 41.695,
   "lng": -73.9211,
   "population": 314159
 },
 {
   "id": 137,
   "city": "Santa Ana",
   "state_id": "CA",
   "lat": 33.7367,
   "lng": -117.8819,
   "population": 311379
 },
 {
   "id": 138,
   "city": "Ann Arbor",
   "state_id": "MI",
   "lat": 42.2759,
   "lng": -83.731,
   "population": 308983
 },
 {
   "id": 139,
   "city": "St. Paul",
   "state_id": "MN",
   "lat": 44.9478,
   "lng": -93.1039,
   "population": 308806
 },
 {
   "id": 140,
   "city": "Newark",
   "state_id": "NJ",
   "lat": 40.7245,
   "lng": -74.1725,
   "population": 307355
 },
 {
   "id": 141,
   "city": "Irvine",
   "state_id": "CA",
   "lat": 33.6772,
   "lng": -117.7738,
   "population": 304527
 },
 {
   "id": 142,
   "city": "Santa Rosa",
   "state_id": "CA",
   "lat": 38.4458,
   "lng": -122.7067,
   "population": 296180
 },
 {
   "id": 143,
   "city": "Canton",
   "state_id": "OH",
   "lat": 40.8078,
   "lng": -81.3676,
   "population": 294047
 },
 {
   "id": 144,
   "city": "Asheville",
   "state_id": "NC",
   "lat": 35.5707,
   "lng": -82.5537,
   "population": 294013
 },
 {
   "id": 145,
   "city": "Flint",
   "state_id": "MI",
   "lat": 43.0236,
   "lng": -83.6921,
   "population": 293893
 },
 {
   "id": 146,
   "city": "Winter Haven",
   "state_id": "FL",
   "lat": 28.0118,
   "lng": -81.7014,
   "population": 293093
 },
 {
   "id": 147,
   "city": "Anchorage",
   "state_id": "AK",
   "lat": 61.1508,
   "lng": -149.1091,
   "population": 290674
 },
 {
   "id": 148,
   "city": "Lincoln",
   "state_id": "NE",
   "lat": 40.8099,
   "lng": -96.6784,
   "population": 290531
 },
 {
   "id": 149,
   "city": "Concord",
   "state_id": "NC",
   "lat": 35.3933,
   "lng": -80.6369,
   "population": 288783
 },
 {
   "id": 150,
   "city": "Jersey City",
   "state_id": "NJ",
   "lat": 40.7184,
   "lng": -74.0686,
   "population": 287899
 },
 {
   "id": 151,
   "city": "Springfield",
   "state_id": "MO",
   "lat": 37.1943,
   "lng": -93.2916,
   "population": 286280
 },
 {
   "id": 152,
   "city": "Plano",
   "state_id": "TX",
   "lat": 33.0502,
   "lng": -96.7486,
   "population": 284948
 },
 {
   "id": 153,
   "city": "Shreveport",
   "state_id": "LA",
   "lat": 32.4653,
   "lng": -93.7955,
   "population": 283536
 },
 {
   "id": 154,
   "city": "Davenport",
   "state_id": "IA",
   "lat": 41.5565,
   "lng": -90.6053,
   "population": 281333
 },
 {
   "id": 155,
   "city": "Lubbock",
   "state_id": "TX",
   "lat": 33.5657,
   "lng": -101.8879,
   "population": 280890
 },
 {
   "id": 156,
   "city": "Lakeland",
   "state_id": "FL",
   "lat": 28.0557,
   "lng": -81.9545,
   "population": 280346
 },
 {
   "id": 157,
   "city": "South Bend",
   "state_id": "IN",
   "lat": 41.6767,
   "lng": -86.2696,
   "population": 278061
 },
 {
   "id": 158,
   "city": "Chula Vista",
   "state_id": "CA",
   "lat": 32.6281,
   "lng": -117.0144,
   "population": 276103
 },
 {
   "id": 159,
   "city": "Chandler",
   "state_id": "AZ",
   "lat": 33.2825,
   "lng": -111.8514,
   "population": 275618
 },
 {
   "id": 160,
   "city": "Rockford",
   "state_id": "IL",
   "lat": 42.2596,
   "lng": -89.064,
   "population": 273237
 },
 {
   "id": 161,
   "city": "Reading",
   "state_id": "PA",
   "lat": 40.34,
   "lng": -75.9267,
   "population": 272712
 },
 {
   "id": 162,
   "city": "Eugene",
   "state_id": "OR",
   "lat": 44.0564,
   "lng": -123.1174,
   "population": 270990
 },
 {
   "id": 163,
   "city": "Wilmington",
   "state_id": "NC",
   "lat": 34.2099,
   "lng": -77.8866,
   "population": 268625
 },
 {
   "id": 164,
   "city": "Santa Clarita",
   "state_id": "CA",
   "lat": 34.4175,
   "lng": -118.4964,
   "population": 268273
 },
 {
   "id": 165,
   "city": "Gilbert",
   "state_id": "AZ",
   "lat": 33.31,
   "lng": -111.7463,
   "population": 267267
 },
 {
   "id": 166,
   "city": "Salem",
   "state_id": "OR",
   "lat": 44.9233,
   "lng": -123.0244,
   "population": 266420
 },
 {
   "id": 167,
   "city": "Killeen",
   "state_id": "TX",
   "lat": 31.0753,
   "lng": -97.7297,
   "population": 265921
 },
 {
   "id": 168,
   "city": "Round Lake Beach",
   "state_id": "IL",
   "lat": 42.3791,
   "lng": -88.0811,
   "population": 264451
 },
 {
   "id": 169,
   "city": "Columbus",
   "state_id": "GA",
   "lat": 32.51,
   "lng": -84.8771,
   "population": 264282
 },
 {
   "id": 170,
   "city": "North Las Vegas",
   "state_id": "NV",
   "lat": 36.2883,
   "lng": -115.0888,
   "population": 264022
 },
 {
   "id": 171,
   "city": "Kennewick",
   "state_id": "WA",
   "lat": 46.1978,
   "lng": -119.1732,
   "population": 259995
 },
 {
   "id": 172,
   "city": "St. Petersburg",
   "state_id": "FL",
   "lat": 27.7931,
   "lng": -82.6652,
   "population": 259343
 },
 {
   "id": 173,
   "city": "Tallahassee",
   "state_id": "FL",
   "lat": 30.4551,
   "lng": -84.2527,
   "population": 258696
 },
 {
   "id": 174,
   "city": "Laredo",
   "state_id": "TX",
   "lat": 27.5625,
   "lng": -99.4874,
   "population": 255293
 },
 {
   "id": 175,
   "city": "Irving",
   "state_id": "TX",
   "lat": 32.8583,
   "lng": -96.9702,
   "population": 254962
 },
 {
   "id": 176,
   "city": "Peoria",
   "state_id": "IL",
   "lat": 40.752,
   "lng": -89.6154,
   "population": 253467
 },
 {
   "id": 177,
   "city": "Montgomery",
   "state_id": "AL",
   "lat": 32.3482,
   "lng": -86.2668,
   "population": 251158
 },
 {
   "id": 178,
   "city": "Chesapeake",
   "state_id": "VA",
   "lat": 36.6778,
   "lng": -76.3023,
   "population": 249377
 },
 {
   "id": 179,
   "city": "Glendale",
   "state_id": "AZ",
   "lat": 33.5791,
   "lng": -112.2311,
   "population": 248083
 },
 {
   "id": 180,
   "city": "York",
   "state_id": "PA",
   "lat": 39.9651,
   "lng": -76.7315,
   "population": 247176
 },
 {
   "id": 181,
   "city": "Nashua",
   "state_id": "NH",
   "lat": 42.7491,
   "lng": -71.491,
   "population": 245209
 },
 {
   "id": 182,
   "city": "Garland",
   "state_id": "TX",
   "lat": 32.91,
   "lng": -96.6304,
   "population": 244026
 },
 {
   "id": 183,
   "city": "Scottsdale",
   "state_id": "AZ",
   "lat": 33.6872,
   "lng": -111.8651,
   "population": 240537
 },
 {
   "id": 184,
   "city": "Lafayette",
   "state_id": "LA",
   "lat": 30.2082,
   "lng": -92.0325,
   "population": 237565
 },
 {
   "id": 185,
   "city": "Norfolk",
   "state_id": "VA",
   "lat": 36.8945,
   "lng": -76.259,
   "population": 236973
 },
 {
   "id": 186,
   "city": "Arlington",
   "state_id": "VA",
   "lat": 38.8786,
   "lng": -77.1011,
   "population": 235845
 },
 {
   "id": 187,
   "city": "Appleton",
   "state_id": "WI",
   "lat": 44.278,
   "lng": -88.3892,
   "population": 233947
 },
 {
   "id": 188,
   "city": "Rock Hill",
   "state_id": "SC",
   "lat": 34.9415,
   "lng": -81.0241,
   "population": 228811
 },
 {
   "id": 189,
   "city": "Fremont",
   "state_id": "CA",
   "lat": 37.5265,
   "lng": -121.9843,
   "population": 228795
 },
 {
   "id": 190,
   "city": "Fargo",
   "state_id": "ND",
   "lat": 46.8651,
   "lng": -96.8292,
   "population": 228364
 },
 {
   "id": 191,
   "city": "Gulfport",
   "state_id": "MS",
   "lat": 30.4274,
   "lng": -89.0704,
   "population": 228022
 },
 {
   "id": 192,
   "city": "Bremerton",
   "state_id": "WA",
   "lat": 47.5436,
   "lng": -122.7121,
   "population": 226805
 },
 {
   "id": 193,
   "city": "Green Bay",
   "state_id": "WI",
   "lat": 44.5148,
   "lng": -87.9895,
   "population": 225633
 },
 {
   "id": 194,
   "city": "Enterprise",
   "state_id": "NV",
   "lat": 36.0091,
   "lng": -115.2278,
   "population": 225461
 },
 {
   "id": 195,
   "city": "Hialeah",
   "state_id": "FL",
   "lat": 25.8696,
   "lng": -80.3045,
   "population": 222996
 },
 {
   "id": 196,
   "city": "Deltona",
   "state_id": "FL",
   "lat": 28.905,
   "lng": -81.2137,
   "population": 221137
 },
 {
   "id": 197,
   "city": "San Bernardino",
   "state_id": "CA",
   "lat": 34.1416,
   "lng": -117.2943,
   "population": 221041
 },
 {
   "id": 198,
   "city": "Gainesville",
   "state_id": "FL",
   "lat": 29.6804,
   "lng": -82.3459,
   "population": 220929
 },
 {
   "id": 199,
   "city": "Spring Valley",
   "state_id": "NV",
   "lat": 36.0952,
   "lng": -115.2636,
   "population": 220114
 },
 {
   "id": 200,
   "city": "Tacoma",
   "state_id": "WA",
   "lat": 47.2431,
   "lng": -122.4531,
   "population": 219234
 },
 {
   "id": 201,
   "city": "Roanoke",
   "state_id": "VA",
   "lat": 37.2785,
   "lng": -79.9581,
   "population": 218533
 },
 {
   "id": 202,
   "city": "Brownsville",
   "state_id": "TX",
   "lat": 25.9975,
   "lng": -97.458,
   "population": 215269
 },
 {
   "id": 203,
   "city": "College Station",
   "state_id": "TX",
   "lat": 30.5852,
   "lng": -96.2959,
   "population": 213177
 },
 {
   "id": 204,
   "city": "Olympia",
   "state_id": "WA",
   "lat": 47.0417,
   "lng": -122.8959,
   "population": 210877
 },
 {
   "id": 205,
   "city": "Clarksville",
   "state_id": "TN",
   "lat": 36.5692,
   "lng": -87.3413,
   "population": 210551
 },
 {
   "id": 206,
   "city": "Yonkers",
   "state_id": "NY",
   "lat": 40.9466,
   "lng": -73.8673,
   "population": 209780
 },
 {
   "id": 207,
   "city": "Moreno Valley",
   "state_id": "CA",
   "lat": 33.9244,
   "lng": -117.2045,
   "population": 209578
 },
 {
   "id": 208,
   "city": "Thousand Oaks",
   "state_id": "CA",
   "lat": 34.1914,
   "lng": -118.8756,
   "population": 209570
 },
 {
   "id": 209,
   "city": "Portland",
   "state_id": "ME",
   "lat": 43.6773,
   "lng": -70.2715,
   "population": 209491
 },
 {
   "id": 210,
   "city": "Fontana",
   "state_id": "CA",
   "lat": 34.0968,
   "lng": -117.4599,
   "population": 209279
 },
 {
   "id": 211,
   "city": "Hickory",
   "state_id": "NC",
   "lat": 35.741,
   "lng": -81.3223,
   "population": 206008
 },
 {
   "id": 212,
   "city": "Amarillo",
   "state_id": "TX",
   "lat": 35.1984,
   "lng": -101.8316,
   "population": 205903
 },
 {
   "id": 213,
   "city": "Sioux Falls",
   "state_id": "SD",
   "lat": 43.5396,
   "lng": -96.7311,
   "population": 204484
 },
 {
   "id": 214,
   "city": "Evansville",
   "state_id": "IN",
   "lat": 37.9881,
   "lng": -87.5341,
   "population": 203661
 },
 {
   "id": 215,
   "city": "Huntington",
   "state_id": "WV",
   "lat": 38.4109,
   "lng": -82.4345,
   "population": 202754
 },
 {
   "id": 216,
   "city": "Waterbury",
   "state_id": "CT",
   "lat": 41.5582,
   "lng": -73.0361,
   "population": 202422
 },
 {
   "id": 217,
   "city": "Frisco",
   "state_id": "TX",
   "lat": 33.156,
   "lng": -96.8216,
   "population": 202075
 },
 {
   "id": 218,
   "city": "Lorain",
   "state_id": "OH",
   "lat": 41.4409,
   "lng": -82.184,
   "population": 201808
 },
 {
   "id": 219,
   "city": "Kalamazoo",
   "state_id": "MI",
   "lat": 42.2749,
   "lng": -85.5882,
   "population": 200838
 },
 {
   "id": 220,
   "city": "Galveston",
   "state_id": "TX",
   "lat": 29.2484,
   "lng": -94.8913,
   "population": 200451
 },
 {
   "id": 221,
   "city": "Spartanburg",
   "state_id": "SC",
   "lat": 34.9442,
   "lng": -81.9251,
   "population": 200000
 },
 {
   "id": 222,
   "city": "Santa Barbara",
   "state_id": "CA",
   "lat": 34.4285,
   "lng": -119.7202,
   "population": 199023
 },
 {
   "id": 223,
   "city": "Sunrise Manor",
   "state_id": "NV",
   "lat": 36.1783,
   "lng": -115.0487,
   "population": 198325
 },
 {
   "id": 224,
   "city": "Huntington Beach",
   "state_id": "CA",
   "lat": 33.696,
   "lng": -118.0018,
   "population": 197481
 },
 {
   "id": 225,
   "city": "Grand Prairie",
   "state_id": "TX",
   "lat": 32.6871,
   "lng": -97.0208,
   "population": 197279
 },
 {
   "id": 226,
   "city": "Overland Park",
   "state_id": "KS",
   "lat": 38.887,
   "lng": -94.687,
   "population": 196676
 },
 {
   "id": 227,
   "city": "McKinney",
   "state_id": "TX",
   "lat": 33.2016,
   "lng": -96.667,
   "population": 196160
 },
 {
   "id": 228,
   "city": "Waco",
   "state_id": "TX",
   "lat": 31.5599,
   "lng": -97.1882,
   "population": 195709
 },
 {
   "id": 229,
   "city": "Hagerstown",
   "state_id": "MD",
   "lat": 39.6401,
   "lng": -77.7217,
   "population": 195261
 },
 {
   "id": 230,
   "city": "Glendale",
   "state_id": "CA",
   "lat": 34.1819,
   "lng": -118.2468,
   "population": 194512
 },
 {
   "id": 231,
   "city": "Nampa",
   "state_id": "ID",
   "lat": 43.5844,
   "lng": -116.5638,
   "population": 193935
 },
 {
   "id": 232,
   "city": "Peoria",
   "state_id": "AZ",
   "lat": 33.7843,
   "lng": -112.2989,
   "population": 191292
 },
 {
   "id": 233,
   "city": "Cedar Rapids",
   "state_id": "IA",
   "lat": 41.9662,
   "lng": -91.6783,
   "population": 191104
 },
 {
   "id": 234,
   "city": "Vancouver",
   "state_id": "WA",
   "lat": 45.6366,
   "lng": -122.5967,
   "population": 190700
 },
 {
   "id": 235,
   "city": "Paradise",
   "state_id": "NV",
   "lat": 36.0872,
   "lng": -115.1355,
   "population": 189733
 },
 {
   "id": 236,
   "city": "Ocala",
   "state_id": "FL",
   "lat": 29.178,
   "lng": -82.1511,
   "population": 186840
 },
 {
   "id": 237,
   "city": "Erie",
   "state_id": "PA",
   "lat": 42.1167,
   "lng": -80.0733,
   "population": 185556
 },
 {
   "id": 238,
   "city": "Newport News",
   "state_id": "VA",
   "lat": 37.1051,
   "lng": -76.5185,
   "population": 185118
 },
 {
   "id": 239,
   "city": "Frederick",
   "state_id": "MD",
   "lat": 39.4337,
   "lng": -77.4141,
   "population": 184991
 },
 {
   "id": 240,
   "city": "Murfreesboro",
   "state_id": "TN",
   "lat": 35.849,
   "lng": -86.4121,
   "population": 184763
 },
 {
   "id": 241,
   "city": "Fort Lauderdale",
   "state_id": "FL",
   "lat": 26.1412,
   "lng": -80.1464,
   "population": 182673
 },
 {
   "id": 242,
   "city": "Aurora",
   "state_id": "IL",
   "lat": 41.7638,
   "lng": -88.2902,
   "population": 181405
 },
 {
   "id": 243,
   "city": "Tempe",
   "state_id": "AZ",
   "lat": 33.3881,
   "lng": -111.9319,
   "population": 181005
 },
 {
   "id": 244,
   "city": "Danbury",
   "state_id": "CT",
   "lat": 41.4015,
   "lng": -73.4709,
   "population": 180143
 },
 {
   "id": 245,
   "city": "Spring Hill",
   "state_id": "FL",
   "lat": 28.4798,
   "lng": -82.53,
   "population": 178833
 },
 {
   "id": 246,
   "city": "Gastonia",
   "state_id": "NC",
   "lat": 35.2494,
   "lng": -81.1854,
   "population": 178220
 },
 {
   "id": 247,
   "city": "Salinas",
   "state_id": "CA",
   "lat": 36.6883,
   "lng": -121.6317,
   "population": 177410
 },
 {
   "id": 248,
   "city": "Fredericksburg",
   "state_id": "VA",
   "lat": 38.2992,
   "lng": -77.4872,
   "population": 176791
 },
 {
   "id": 249,
   "city": "Ontario",
   "state_id": "CA",
   "lat": 34.0393,
   "lng": -117.6064,
   "population": 176326
 },
 {
   "id": 250,
   "city": "Elk Grove",
   "state_id": "CA",
   "lat": 38.4161,
   "lng": -121.3842,
   "population": 176105
 },
 {
   "id": 251,
   "city": "Gainesville",
   "state_id": "GA",
   "lat": 34.2902,
   "lng": -83.8294,
   "population": 175569
 },
 {
   "id": 252,
   "city": "Cary",
   "state_id": "NC",
   "lat": 35.7819,
   "lng": -78.8195,
   "population": 174880
 },
 {
   "id": 253,
   "city": "Rancho Cucamonga",
   "state_id": "CA",
   "lat": 34.1247,
   "lng": -117.5667,
   "population": 174696
 },
 {
   "id": 254,
   "city": "Oceanside",
   "state_id": "CA",
   "lat": 33.2247,
   "lng": -117.3083,
   "population": 173722
 },
 {
   "id": 255,
   "city": "Garden Grove",
   "state_id": "CA",
   "lat": 33.7787,
   "lng": -117.9601,
   "population": 171637
 },
 {
   "id": 256,
   "city": "Lancaster",
   "state_id": "CA",
   "lat": 34.6935,
   "lng": -118.1753,
   "population": 171465
 },
 {
   "id": 257,
   "city": "Hemet",
   "state_id": "CA",
   "lat": 33.7341,
   "lng": -116.9969,
   "population": 170621
 },
 {
   "id": 258,
   "city": "Pembroke Pines",
   "state_id": "FL",
   "lat": 26.0128,
   "lng": -80.3382,
   "population": 170472
 },
 {
   "id": 259,
   "city": "Panama City",
   "state_id": "FL",
   "lat": 30.1995,
   "lng": -85.6003,
   "population": 169810
 },
 {
   "id": 260,
   "city": "Vallejo",
   "state_id": "CA",
   "lat": 38.1125,
   "lng": -122.2342,
   "population": 169541
 },
 {
   "id": 261,
   "city": "Manchester",
   "state_id": "NH",
   "lat": 42.9848,
   "lng": -71.4447,
   "population": 169097
 },
 {
   "id": 262,
   "city": "Medford",
   "state_id": "OR",
   "lat": 42.3372,
   "lng": -122.854,
   "population": 168959
 },
 {
   "id": 263,
   "city": "Mauldin",
   "state_id": "SC",
   "lat": 34.7821,
   "lng": -82.3032,
   "population": 168313
 },
 {
   "id": 264,
   "city": "Santa Cruz",
   "state_id": "CA",
   "lat": 36.9789,
   "lng": -122.0346,
   "population": 167835
 },
 {
   "id": 265,
   "city": "Palmdale",
   "state_id": "CA",
   "lat": 34.5944,
   "lng": -118.1057,
   "population": 166895
 },
 {
   "id": 266,
   "city": "Norwich",
   "state_id": "CT",
   "lat": 41.5495,
   "lng": -72.0882,
   "population": 166885
 },
 {
   "id": 267,
   "city": "Muskegon",
   "state_id": "MI",
   "lat": 43.2281,
   "lng": -86.2562,
   "population": 166847
 },
 {
   "id": 268,
   "city": "Leesburg",
   "state_id": "FL",
   "lat": 28.7672,
   "lng": -81.8962,
   "population": 166200
 },
 {
   "id": 269,
   "city": "High Point",
   "state_id": "NC",
   "lat": 35.991,
   "lng": -79.9937,
   "population": 164836
 },
 {
   "id": 270,
   "city": "Tuscaloosa",
   "state_id": "AL",
   "lat": 33.2348,
   "lng": -87.5268,
   "population": 164414
 },
 {
   "id": 271,
   "city": "Visalia",
   "state_id": "CA",
   "lat": 36.3276,
   "lng": -119.3269,
   "population": 163681
 },
 {
   "id": 272,
   "city": "Marysville",
   "state_id": "WA",
   "lat": 48.0809,
   "lng": -122.1561,
   "population": 162664
 },
 {
   "id": 273,
   "city": "Merced",
   "state_id": "CA",
   "lat": 37.3057,
   "lng": -120.4779,
   "population": 160638
 },
 {
   "id": 274,
   "city": "Hayward",
   "state_id": "CA",
   "lat": 37.6328,
   "lng": -122.0766,
   "population": 160602
 },
 {
   "id": 275,
   "city": "Lafayette",
   "state_id": "IN",
   "lat": 40.3991,
   "lng": -86.8593,
   "population": 160543
 },
 {
   "id": 276,
   "city": "Springfield",
   "state_id": "IL",
   "lat": 39.7709,
   "lng": -89.654,
   "population": 159671
 },
 {
   "id": 277,
   "city": "Corona",
   "state_id": "CA",
   "lat": 33.8616,
   "lng": -117.5649,
   "population": 158346
 },
 {
   "id": 278,
   "city": "Paterson",
   "state_id": "NJ",
   "lat": 40.9147,
   "lng": -74.1624,
   "population": 157864
 },
 {
   "id": 279,
   "city": "Alexandria",
   "state_id": "VA",
   "lat": 38.8185,
   "lng": -77.0861,
   "population": 157594
 },
 {
   "id": 280,
   "city": "Macon",
   "state_id": "GA",
   "lat": 32.8065,
   "lng": -83.6974,
   "population": 156554
 },
 {
   "id": 281,
   "city": "Binghamton",
   "state_id": "NY",
   "lat": 42.1014,
   "lng": -75.9093,
   "population": 156375
 },
 {
   "id": 282,
   "city": "Lakewood",
   "state_id": "CO",
   "lat": 39.6977,
   "lng": -105.1172,
   "population": 156149
 },
 {
   "id": 283,
   "city": "Kansas City",
   "state_id": "KS",
   "lat": 39.1235,
   "lng": -94.7443,
   "population": 155438
 },
 {
   "id": 284,
   "city": "Odessa",
   "state_id": "TX",
   "lat": 31.8801,
   "lng": -102.3448,
   "population": 155039
 },
 {
   "id": 285,
   "city": "Sunnyvale",
   "state_id": "CA",
   "lat": 37.3836,
   "lng": -122.0255,
   "population": 154573
 },
 {
   "id": 286,
   "city": "New Bedford",
   "state_id": "MA",
   "lat": 41.6697,
   "lng": -70.9428,
   "population": 153701
 },
 {
   "id": 287,
   "city": "Hollywood",
   "state_id": "FL",
   "lat": 26.0293,
   "lng": -80.1679,
   "population": 152764
 },
 {
   "id": 288,
   "city": "South Lyon",
   "state_id": "MI",
   "lat": 42.4614,
   "lng": -83.6526,
   "population": 152132
 },
 {
   "id": 289,
   "city": "Escondido",
   "state_id": "CA",
   "lat": 33.1348,
   "lng": -117.0723,
   "population": 151114
 },
 {
   "id": 290,
   "city": "Lake Charles",
   "state_id": "LA",
   "lat": 30.201,
   "lng": -93.2111,
   "population": 151109
 },
 {
   "id": 291,
   "city": "Pasadena",
   "state_id": "TX",
   "lat": 29.6575,
   "lng": -95.1498,
   "population": 150620
 },
 {
   "id": 292,
   "city": "Bellevue",
   "state_id": "WA",
   "lat": 47.5951,
   "lng": -122.1535,
   "population": 150606
 },
 {
   "id": 293,
   "city": "Joliet",
   "state_id": "IL",
   "lat": 41.5188,
   "lng": -88.1499,
   "population": 150221
 },
 {
   "id": 294,
   "city": "Champaign",
   "state_id": "IL",
   "lat": 40.1142,
   "lng": -88.2737,
   "population": 150179
 },
 {
   "id": 295,
   "city": "Pomona",
   "state_id": "CA",
   "lat": 34.0585,
   "lng": -117.7626,
   "population": 149831
 },
 {
   "id": 296,
   "city": "Fairfield",
   "state_id": "CA",
   "lat": 38.2583,
   "lng": -122.0335,
   "population": 149635
 },
 {
   "id": 297,
   "city": "Mesquite",
   "state_id": "TX",
   "lat": 32.7602,
   "lng": -96.5865,
   "population": 149439
 },
 {
   "id": 298,
   "city": "Elkhart",
   "state_id": "IN",
   "lat": 41.6916,
   "lng": -85.9627,
   "population": 149423
 },
 {
   "id": 299,
   "city": "Naperville",
   "state_id": "IL",
   "lat": 41.748,
   "lng": -88.1659,
   "population": 149089
 },
 {
   "id": 300,
   "city": "St. George",
   "state_id": "UT",
   "lat": 37.0758,
   "lng": -113.5752,
   "population": 148895
 },
 {
   "id": 301,
   "city": "Roseville",
   "state_id": "CA",
   "lat": 38.7703,
   "lng": -121.3196,
   "population": 148879
 },
 {
   "id": 302,
   "city": "Topeka",
   "state_id": "KS",
   "lat": 39.0346,
   "lng": -95.6955,
   "population": 148185
 },
 {
   "id": 303,
   "city": "Burlington",
   "state_id": "NC",
   "lat": 36.076,
   "lng": -79.4685,
   "population": 147415
 },
 {
   "id": 304,
   "city": "Warner Robins",
   "state_id": "GA",
   "lat": 32.5961,
   "lng": -83.6527,
   "population": 146790
 },
 {
   "id": 305,
   "city": "Surprise",
   "state_id": "AZ",
   "lat": 33.6815,
   "lng": -112.4515,
   "population": 145591
 },
 {
   "id": 306,
   "city": "Torrance",
   "state_id": "CA",
   "lat": 33.8346,
   "lng": -118.3416,
   "population": 145454
 },
 {
   "id": 307,
   "city": "Santa Maria",
   "state_id": "CA",
   "lat": 34.9333,
   "lng": -120.4431,
   "population": 143647
 },
 {
   "id": 308,
   "city": "Athens",
   "state_id": "GA",
   "lat": 33.9508,
   "lng": -83.3689,
   "population": 143173
 },
 {
   "id": 309,
   "city": "Houma",
   "state_id": "LA",
   "lat": 29.58,
   "lng": -90.7059,
   "population": 143160
 },
 {
   "id": 310,
   "city": "Columbia",
   "state_id": "MO",
   "lat": 38.9472,
   "lng": -92.3268,
   "population": 142637
 },
 {
   "id": 311,
   "city": "Fullerton",
   "state_id": "CA",
   "lat": 33.8841,
   "lng": -117.9279,
   "population": 142280
 },
 {
   "id": 312,
   "city": "Olathe",
   "state_id": "KS",
   "lat": 38.8833,
   "lng": -94.82,
   "population": 142114
 },
 {
   "id": 313,
   "city": "Thornton",
   "state_id": "CO",
   "lat": 39.9197,
   "lng": -104.9438,
   "population": 141799
 },
 {
   "id": 314,
   "city": "Greeley",
   "state_id": "CO",
   "lat": 40.4152,
   "lng": -104.7706,
   "population": 140984
 },
 {
   "id": 315,
   "city": "Beaumont",
   "state_id": "TX",
   "lat": 30.0849,
   "lng": -94.1451,
   "population": 140930
 },
 {
   "id": 316,
   "city": "Las Cruces",
   "state_id": "NM",
   "lat": 32.3265,
   "lng": -106.7893,
   "population": 140915
 },
 {
   "id": 317,
   "city": "Midland",
   "state_id": "TX",
   "lat": 32.0243,
   "lng": -102.1147,
   "population": 140171
 },
 {
   "id": 318,
   "city": "Metairie",
   "state_id": "LA",
   "lat": 29.9977,
   "lng": -90.178,
   "population": 140046
 },
 {
   "id": 319,
   "city": "West Valley City",
   "state_id": "UT",
   "lat": 40.6886,
   "lng": -112.0123,
   "population": 138868
 },
 {
   "id": 320,
   "city": "Orange",
   "state_id": "CA",
   "lat": 33.8038,
   "lng": -117.8218,
   "population": 138728
 },
 {
   "id": 321,
   "city": "Warren",
   "state_id": "MI",
   "lat": 42.4934,
   "lng": -83.027,
   "population": 138588
 },
 {
   "id": 322,
   "city": "Grand Junction",
   "state_id": "CO",
   "lat": 39.0877,
   "lng": -108.5673,
   "population": 138416
 },
 {
   "id": 323,
   "city": "Tyler",
   "state_id": "TX",
   "lat": 32.3184,
   "lng": -95.3062,
   "population": 138024
 },
 {
   "id": 324,
   "city": "Pasadena",
   "state_id": "CA",
   "lat": 34.1597,
   "lng": -118.139,
   "population": 137554
 },
 {
   "id": 325,
   "city": "Hampton",
   "state_id": "VA",
   "lat": 37.0551,
   "lng": -76.363,
   "population": 137217
 },
 {
   "id": 326,
   "city": "Bloomington",
   "state_id": "IL",
   "lat": 40.4757,
   "lng": -88.9703,
   "population": 136524
 },
 {
   "id": 327,
   "city": "Elizabeth",
   "state_id": "NJ",
   "lat": 40.6658,
   "lng": -74.1913,
   "population": 135665
 },
 {
   "id": 328,
   "city": "Stamford",
   "state_id": "CT",
   "lat": 41.1039,
   "lng": -73.5585,
   "population": 135413
 },
 {
   "id": 329,
   "city": "Yuma",
   "state_id": "AZ",
   "lat": 32.5995,
   "lng": -114.5491,
   "population": 135389
 },
 {
   "id": 330,
   "city": "Kent",
   "state_id": "WA",
   "lat": 47.3887,
   "lng": -122.2128,
   "population": 135169
 },
 {
   "id": 331,
   "city": "Miramar",
   "state_id": "FL",
   "lat": 25.9773,
   "lng": -80.3351,
   "population": 135158
 },
 {
   "id": 332,
   "city": "Coeur d'Alene",
   "state_id": "ID",
   "lat": 47.704,
   "lng": -116.7936,
   "population": 134503
 },
 {
   "id": 333,
   "city": "Coral Springs",
   "state_id": "FL",
   "lat": 26.2702,
   "lng": -80.2591,
   "population": 133801
 },
 {
   "id": 334,
   "city": "Sterling Heights",
   "state_id": "MI",
   "lat": 42.5809,
   "lng": -83.0305,
   "population": 133744
 },
 {
   "id": 335,
   "city": "Yuba City",
   "state_id": "CA",
   "lat": 39.1357,
   "lng": -121.6383,
   "population": 133106
 },
 {
   "id": 336,
   "city": "Yakima",
   "state_id": "WA",
   "lat": 46.5923,
   "lng": -120.5496,
   "population": 132354
 },
 {
   "id": 337,
   "city": "Carrollton",
   "state_id": "TX",
   "lat": 32.989,
   "lng": -96.8999,
   "population": 132284
 },
 {
   "id": 338,
   "city": "Racine",
   "state_id": "WI",
   "lat": 42.7274,
   "lng": -87.8135,
   "population": 132006
 },
 {
   "id": 339,
   "city": "Johnson City",
   "state_id": "TN",
   "lat": 36.3406,
   "lng": -82.3806,
   "population": 131718
 },
 {
   "id": 340,
   "city": "Billings",
   "state_id": "MT",
   "lat": 45.7891,
   "lng": -108.5526,
   "population": 131519
 },
 {
   "id": 341,
   "city": "Iowa City",
   "state_id": "IA",
   "lat": 41.6559,
   "lng": -91.5303,
   "population": 130736
 },
 {
   "id": 342,
   "city": "Dover",
   "state_id": "DE",
   "lat": 39.161,
   "lng": -75.5202,
   "population": 130186
 },
 {
   "id": 343,
   "city": "Bellingham",
   "state_id": "WA",
   "lat": 48.7548,
   "lng": -122.469,
   "population": 129880
 },
 {
   "id": 344,
   "city": "Charleston",
   "state_id": "WV",
   "lat": 38.3484,
   "lng": -81.6322,
   "population": 129754
 },
 {
   "id": 345,
   "city": "Lynchburg",
   "state_id": "VA",
   "lat": 37.4003,
   "lng": -79.1909,
   "population": 128849
 },
 {
   "id": 346,
   "city": "Santa Clara",
   "state_id": "CA",
   "lat": 37.3646,
   "lng": -121.968,
   "population": 128058
 },
 {
   "id": 347,
   "city": "Norman",
   "state_id": "OK",
   "lat": 35.2335,
   "lng": -97.3471,
   "population": 127701
 },
 {
   "id": 348,
   "city": "Greenville",
   "state_id": "NC",
   "lat": 35.5943,
   "lng": -77.376,
   "population": 127574
 },
 {
   "id": 349,
   "city": "Simi Valley",
   "state_id": "CA",
   "lat": 34.2663,
   "lng": -118.749,
   "population": 127568
 },
 {
   "id": 350,
   "city": "Fort Smith",
   "state_id": "AR",
   "lat": 35.3495,
   "lng": -94.3695,
   "population": 126452
 },
 {
   "id": 351,
   "city": "Abilene",
   "state_id": "TX",
   "lat": 32.4543,
   "lng": -99.7384,
   "population": 126356
 },
 {
   "id": 352,
   "city": "Lewisville",
   "state_id": "TX",
   "lat": 33.0454,
   "lng": -96.9815,
   "population": 125028
 },
 {
   "id": 353,
   "city": "Pearland",
   "state_id": "TX",
   "lat": 29.5581,
   "lng": -95.3218,
   "population": 124478
 },
 {
   "id": 354,
   "city": "Lehigh Acres",
   "state_id": "FL",
   "lat": 26.612,
   "lng": -81.6388,
   "population": 124440
 },
 {
   "id": 355,
   "city": "Kenosha",
   "state_id": "WI",
   "lat": 42.5865,
   "lng": -87.8773,
   "population": 124297
 },
 {
   "id": 356,
   "city": "Seaside",
   "state_id": "CA",
   "lat": 36.6224,
   "lng": -121.8199,
   "population": 123421
 },
 {
   "id": 357,
   "city": "Burlington",
   "state_id": "VT",
   "lat": 44.4876,
   "lng": -73.2316,
   "population": 123307
 },
 {
   "id": 358,
   "city": "Arvada",
   "state_id": "CO",
   "lat": 39.832,
   "lng": -105.151,
   "population": 123066
 },
 {
   "id": 359,
   "city": "Waldorf",
   "state_id": "MD",
   "lat": 38.6085,
   "lng": -76.9194,
   "population": 122310
 },
 {
   "id": 360,
   "city": "Independence",
   "state_id": "MO",
   "lat": 39.0871,
   "lng": -94.3501,
   "population": 122218
 },
 {
   "id": 361,
   "city": "Rochester",
   "state_id": "MN",
   "lat": 44.0154,
   "lng": -92.478,
   "population": 121870
 },
 {
   "id": 362,
   "city": "Logan",
   "state_id": "UT",
   "lat": 41.7399,
   "lng": -111.8422,
   "population": 121666
 },
 {
   "id": 363,
   "city": "Harlingen",
   "state_id": "TX",
   "lat": 26.1916,
   "lng": -97.6977,
   "population": 121441
 },
 {
   "id": 364,
   "city": "Berkeley",
   "state_id": "CA",
   "lat": 37.8722,
   "lng": -122.276,
   "population": 121385
 },
 {
   "id": 365,
   "city": "Clovis",
   "state_id": "CA",
   "lat": 36.8278,
   "lng": -119.683,
   "population": 120607
 },
 {
   "id": 366,
   "city": "Round Rock",
   "state_id": "TX",
   "lat": 30.527,
   "lng": -97.6642,
   "population": 120465
 },
 {
   "id": 367,
   "city": "Pueblo",
   "state_id": "CO",
   "lat": 38.2701,
   "lng": -104.6114,
   "population": 120380
 },
 {
   "id": 368,
   "city": "Temple",
   "state_id": "TX",
   "lat": 31.1068,
   "lng": -97.3891,
   "population": 120240
 },
 {
   "id": 369,
   "city": "Meridian",
   "state_id": "ID",
   "lat": 43.6116,
   "lng": -116.3977,
   "population": 119872
 },
 {
   "id": 370,
   "city": "Duluth",
   "state_id": "MN",
   "lat": 46.7756,
   "lng": -92.1393,
   "population": 118574
 },
 {
   "id": 371,
   "city": "The Woodlands",
   "state_id": "TX",
   "lat": 30.1738,
   "lng": -95.5134,
   "population": 118402
 },
 {
   "id": 372,
   "city": "Boulder",
   "state_id": "CO",
   "lat": 40.0248,
   "lng": -105.2524,
   "population": 118090
 },
 {
   "id": 373,
   "city": "Richardson",
   "state_id": "TX",
   "lat": 32.9716,
   "lng": -96.7093,
   "population": 118063
 },
 {
   "id": 374,
   "city": "Cambridge",
   "state_id": "MA",
   "lat": 42.3759,
   "lng": -71.1185,
   "population": 117962
 },
 {
   "id": 375,
   "city": "West Palm Beach",
   "state_id": "FL",
   "lat": 26.7469,
   "lng": -80.132,
   "population": 117588
 },
 {
   "id": 376,
   "city": "Port Arthur",
   "state_id": "TX",
   "lat": 29.8554,
   "lng": -93.9264,
   "population": 117348
 },
 {
   "id": 377,
   "city": "East Los Angeles",
   "state_id": "CA",
   "lat": 34.0326,
   "lng": -118.1691,
   "population": 117222
 },
 {
   "id": 378,
   "city": "Redding",
   "state_id": "CA",
   "lat": 40.5698,
   "lng": -122.365,
   "population": 117163
 },
 {
   "id": 379,
   "city": "Clearwater",
   "state_id": "FL",
   "lat": 27.979,
   "lng": -82.7623,
   "population": 116984
 },
 {
   "id": 380,
   "city": "Monroe",
   "state_id": "LA",
   "lat": 32.5185,
   "lng": -92.0774,
   "population": 116927
 },
 {
   "id": 381,
   "city": "Utica",
   "state_id": "NY",
   "lat": 43.0962,
   "lng": -75.2261,
   "population": 116766
 },
 {
   "id": 382,
   "city": "Mandeville",
   "state_id": "LA",
   "lat": 30.3751,
   "lng": -90.0904,
   "population": 116649
 },
 {
   "id": 383,
   "city": "St. Cloud",
   "state_id": "MN",
   "lat": 45.534,
   "lng": -94.1718,
   "population": 116649
 },
 {
   "id": 384,
   "city": "West Jordan",
   "state_id": "UT",
   "lat": 40.6024,
   "lng": -112.0008,
   "population": 116383
 },
 {
   "id": 385,
   "city": "North Charleston",
   "state_id": "SC",
   "lat": 32.9067,
   "lng": -80.0722,
   "population": 115755
 },
 {
   "id": 386,
   "city": "Richmond",
   "state_id": "CA",
   "lat": 37.9477,
   "lng": -122.3389,
   "population": 115619
 },
 {
   "id": 387,
   "city": "Westminster",
   "state_id": "CO",
   "lat": 39.8837,
   "lng": -105.0624,
   "population": 115502
 },
 {
   "id": 388,
   "city": "Saginaw",
   "state_id": "MI",
   "lat": 43.4199,
   "lng": -83.9501,
   "population": 115442
 },
 {
   "id": 389,
   "city": "Kailua",
   "state_id": "HI",
   "lat": 21.392,
   "lng": -157.7396,
   "population": 115264
 },
 {
   "id": 390,
   "city": "Brandon",
   "state_id": "FL",
   "lat": 27.9367,
   "lng": -82.3,
   "population": 114923
 },
 {
   "id": 391,
   "city": "Carlsbad",
   "state_id": "CA",
   "lat": 33.1246,
   "lng": -117.2834,
   "population": 114745
 },
 {
   "id": 392,
   "city": "Lowell",
   "state_id": "MA",
   "lat": 42.6389,
   "lng": -71.3217,
   "population": 114737
 },
 {
   "id": 393,
   "city": "Broken Arrow",
   "state_id": "OK",
   "lat": 36.038,
   "lng": -95.7806,
   "population": 114237
 },
 {
   "id": 394,
   "city": "Elgin",
   "state_id": "IL",
   "lat": 42.0383,
   "lng": -88.324,
   "population": 114190
 },
 {
   "id": 395,
   "city": "Gresham",
   "state_id": "OR",
   "lat": 45.5021,
   "lng": -122.4413,
   "population": 113525
 },
 {
   "id": 396,
   "city": "League City",
   "state_id": "TX",
   "lat": 29.4874,
   "lng": -95.1087,
   "population": 113469
 },
 {
   "id": 397,
   "city": "Downey",
   "state_id": "CA",
   "lat": 33.9379,
   "lng": -118.1311,
   "population": 113052
 },
 {
   "id": 398,
   "city": "Waterloo",
   "state_id": "IA",
   "lat": 42.4918,
   "lng": -92.3522,
   "population": 112333
 },
 {
   "id": 399,
   "city": "Murrieta",
   "state_id": "CA",
   "lat": 33.5719,
   "lng": -117.1909,
   "population": 111899
 },
 {
   "id": 400,
   "city": "Leominster",
   "state_id": "MA",
   "lat": 42.5209,
   "lng": -71.7717,
   "population": 111856
 },
 {
   "id": 401,
   "city": "Longview",
   "state_id": "TX",
   "lat": 32.5193,
   "lng": -94.7622,
   "population": 111855
 },
 {
   "id": 402,
   "city": "Jacksonville",
   "state_id": "NC",
   "lat": 34.7289,
   "lng": -77.3941,
   "population": 111830
 },
 {
   "id": 403,
   "city": "Pompano Beach",
   "state_id": "FL",
   "lat": 26.2428,
   "lng": -80.1312,
   "population": 111790
 },
 {
   "id": 404,
   "city": "Bend",
   "state_id": "OR",
   "lat": 44.0563,
   "lng": -121.3095,
   "population": 111774
 },
 {
   "id": 405,
   "city": "Miami Gardens",
   "state_id": "FL",
   "lat": 25.9433,
   "lng": -80.2426,
   "population": 111618
 },
 {
   "id": 406,
   "city": "Costa Mesa",
   "state_id": "CA",
   "lat": 33.6667,
   "lng": -117.9135,
   "population": 111490
 },
 {
   "id": 407,
   "city": "Sioux City",
   "state_id": "IA",
   "lat": 42.4959,
   "lng": -96.3901,
   "population": 111361
 },
 {
   "id": 408,
   "city": "Everett",
   "state_id": "WA",
   "lat": 47.9525,
   "lng": -122.1669,
   "population": 110847
 },
 {
   "id": 409,
   "city": "Gilroy",
   "state_id": "CA",
   "lat": 37.0046,
   "lng": -121.5854,
   "population": 110720
 },
 {
   "id": 410,
   "city": "San Buenaventura",
   "state_id": "CA",
   "lat": 34.2741,
   "lng": -119.2314,
   "population": 110358
 },
 {
   "id": 411,
   "city": "Temecula",
   "state_id": "CA",
   "lat": 33.4928,
   "lng": -117.1315,
   "population": 110114
 },
 {
   "id": 412,
   "city": "Sugar Land",
   "state_id": "TX",
   "lat": 29.5935,
   "lng": -95.6358,
   "population": 110077
 },
 {
   "id": 413,
   "city": "Chico",
   "state_id": "CA",
   "lat": 39.7578,
   "lng": -121.8161,
   "population": 110001
 },
 {
   "id": 414,
   "city": "Eau Claire",
   "state_id": "WI",
   "lat": 44.8197,
   "lng": -91.4948,
   "population": 109491
 },
 {
   "id": 415,
   "city": "El Monte",
   "state_id": "CA",
   "lat": 34.0739,
   "lng": -118.0291,
   "population": 108682
 },
 {
   "id": 416,
   "city": "Idaho Falls",
   "state_id": "ID",
   "lat": 43.4871,
   "lng": -112.0362,
   "population": 108544
 },
 {
   "id": 417,
   "city": "Dearborn",
   "state_id": "MI",
   "lat": 42.3127,
   "lng": -83.213,
   "population": 108414
 },
 {
   "id": 418,
   "city": "Bloomington",
   "state_id": "IN",
   "lat": 39.1637,
   "lng": -86.5257,
   "population": 108387
 },
 {
   "id": 419,
   "city": "West Covina",
   "state_id": "CA",
   "lat": 34.0555,
   "lng": -117.9113,
   "population": 108173
 },
 {
   "id": 420,
   "city": "Sparks",
   "state_id": "NV",
   "lat": 39.5736,
   "lng": -119.7161,
   "population": 108025
 },
 {
   "id": 421,
   "city": "South Fulton",
   "state_id": "GA",
   "lat": 33.6273,
   "lng": -84.58,
   "population": 107865
 },
 {
   "id": 422,
   "city": "Centennial",
   "state_id": "CO",
   "lat": 39.5926,
   "lng": -104.8673,
   "population": 107702
 },
 {
   "id": 423,
   "city": "Sandy Springs",
   "state_id": "GA",
   "lat": 33.9366,
   "lng": -84.3703,
   "population": 107221
 },
 {
   "id": 424,
   "city": "Inglewood",
   "state_id": "CA",
   "lat": 33.9566,
   "lng": -118.3444,
   "population": 106806
 },
 {
   "id": 425,
   "city": "Hillsboro",
   "state_id": "OR",
   "lat": 45.5273,
   "lng": -122.936,
   "population": 106612
 },
 {
   "id": 426,
   "city": "Columbia",
   "state_id": "MD",
   "lat": 39.2004,
   "lng": -76.859,
   "population": 106600
 },
 {
   "id": 427,
   "city": "Burbank",
   "state_id": "CA",
   "lat": 34.1879,
   "lng": -118.3235,
   "population": 106389
 },
 {
   "id": 428,
   "city": "Davie",
   "state_id": "FL",
   "lat": 26.0789,
   "lng": -80.287,
   "population": 105821
 },
 {
   "id": 429,
   "city": "El Cajon",
   "state_id": "CA",
   "lat": 32.8017,
   "lng": -116.9604,
   "population": 105721
 },
 {
   "id": 430,
   "city": "Jurupa Valley",
   "state_id": "CA",
   "lat": 34.001,
   "lng": -117.4706,
   "population": 105672
 },
 {
   "id": 431,
   "city": "Allen",
   "state_id": "TX",
   "lat": 33.1088,
   "lng": -96.6735,
   "population": 105444
 },
 {
   "id": 432,
   "city": "Auburn",
   "state_id": "AL",
   "lat": 32.6087,
   "lng": -85.4903,
   "population": 105386
 },
 {
   "id": 433,
   "city": "Renton",
   "state_id": "WA",
   "lat": 47.4784,
   "lng": -122.1918,
   "population": 105355
 },
 {
   "id": 434,
   "city": "Holland",
   "state_id": "MI",
   "lat": 42.7677,
   "lng": -86.0984,
   "population": 105134
 },
 {
   "id": 435,
   "city": "Brockton",
   "state_id": "MA",
   "lat": 42.0821,
   "lng": -71.0242,
   "population": 104713
 },
 {
   "id": 436,
   "city": "Rio Rancho",
   "state_id": "NM",
   "lat": 35.2873,
   "lng": -106.6982,
   "population": 104351
 },
 {
   "id": 437,
   "city": "San Mateo",
   "state_id": "CA",
   "lat": 37.5522,
   "lng": -122.3121,
   "population": 104165
 },
 {
   "id": 438,
   "city": "Rialto",
   "state_id": "CA",
   "lat": 34.1175,
   "lng": -117.3892,
   "population": 103873
 },
 {
   "id": 439,
   "city": "Spokane Valley",
   "state_id": "WA",
   "lat": 47.6626,
   "lng": -117.2346,
   "population": 103761
 },
 {
   "id": 440,
   "city": "Charlottesville",
   "state_id": "VA",
   "lat": 38.0375,
   "lng": -78.4855,
   "population": 103760
 },
 {
   "id": 441,
   "city": "Menifee",
   "state_id": "CA",
   "lat": 33.6909,
   "lng": -117.1849,
   "population": 103680
 },
 {
   "id": 442,
   "city": "Daly City",
   "state_id": "CA",
   "lat": 37.6862,
   "lng": -122.4685,
   "population": 103648
 },
 {
   "id": 443,
   "city": "Wichita Falls",
   "state_id": "TX",
   "lat": 33.9072,
   "lng": -98.5291,
   "population": 102482
 },
 {
   "id": 444,
   "city": "Riverview",
   "state_id": "FL",
   "lat": 27.8227,
   "lng": -82.3023,
   "population": 102467
 },
 {
   "id": 445,
   "city": "Norwalk",
   "state_id": "CA",
   "lat": 33.9069,
   "lng": -118.0829,
   "population": 101893
 },
 {
   "id": 446,
   "city": "Lee's Summit",
   "state_id": "MO",
   "lat": 38.9171,
   "lng": -94.3816,
   "population": 101728
 },
 {
   "id": 447,
   "city": "Longmont",
   "state_id": "CO",
   "lat": 40.1686,
   "lng": -105.1005,
   "population": 101642
 },
 {
   "id": 448,
   "city": "Vacaville",
   "state_id": "CA",
   "lat": 38.3587,
   "lng": -121.9673,
   "population": 101631
 },
 {
   "id": 449,
   "city": "Highlands Ranch",
   "state_id": "CO",
   "lat": 39.5419,
   "lng": -104.9708,
   "population": 101514
 },
 {
   "id": 450,
   "city": "Kingsport",
   "state_id": "TN",
   "lat": 36.5224,
   "lng": -82.5454,
   "population": 101323
 },
 {
   "id": 451,
   "city": "San Tan Valley",
   "state_id": "AZ",
   "lat": 33.1786,
   "lng": -111.5629,
   "population": 101207
 },
 {
   "id": 452,
   "city": "Quincy",
   "state_id": "MA",
   "lat": 42.2506,
   "lng": -71.0187,
   "population": 100981
 },
 {
   "id": 453,
   "city": "Edinburg",
   "state_id": "TX",
   "lat": 26.3196,
   "lng": -98.1597,
   "population": 100964
 },
 {
   "id": 454,
   "city": "Lynn",
   "state_id": "MA",
   "lat": 42.4781,
   "lng": -70.9664,
   "population": 100653
 },
 {
   "id": 455,
   "city": "San Angelo",
   "state_id": "TX",
   "lat": 31.4424,
   "lng": -100.4504,
   "population": 100057
 },
 {
   "id": 456,
   "city": "Hesperia",
   "state_id": "CA",
   "lat": 34.3975,
   "lng": -117.3147,
   "population": 99878
 },
 {
   "id": 457,
   "city": "Bowling Green",
   "state_id": "KY",
   "lat": 36.9716,
   "lng": -86.4378,
   "population": 99669
 },
 {
   "id": 458,
   "city": "Federal Way",
   "state_id": "WA",
   "lat": 47.3091,
   "lng": -122.3358,
   "population": 99614
 },
 {
   "id": 459,
   "city": "Carmel",
   "state_id": "IN",
   "lat": 39.965,
   "lng": -86.146,
   "population": 99453
 },
 {
   "id": 460,
   "city": "Bismarck",
   "state_id": "ND",
   "lat": 46.8143,
   "lng": -100.7694,
   "population": 99433
 },
 {
   "id": 461,
   "city": "Fishers",
   "state_id": "IN",
   "lat": 39.9588,
   "lng": -85.9659,
   "population": 99041
 },
 {
   "id": 462,
   "city": "Lafayette",
   "state_id": "CO",
   "lat": 39.9946,
   "lng": -105.0998,
   "population": 98889
 },
 {
   "id": 463,
   "city": "Vista",
   "state_id": "CA",
   "lat": 33.1896,
   "lng": -117.2386,
   "population": 98392
 },
 {
   "id": 464,
   "city": "Boca Raton",
   "state_id": "FL",
   "lat": 26.3752,
   "lng": -80.108,
   "population": 97980
 },
 {
   "id": 465,
   "city": "St. Augustine",
   "state_id": "FL",
   "lat": 29.8976,
   "lng": -81.31,
   "population": 97703
 },
 {
   "id": 466,
   "city": "Beaverton",
   "state_id": "OR",
   "lat": 45.4779,
   "lng": -122.8168,
   "population": 97554
 },
 {
   "id": 467,
   "city": "Goodyear",
   "state_id": "AZ",
   "lat": 33.2614,
   "lng": -112.3622,
   "population": 97542
 },
 {
   "id": 468,
   "city": "Portsmouth",
   "state_id": "VA",
   "lat": 36.8468,
   "lng": -76.354,
   "population": 97384
 },
 {
   "id": 469,
   "city": "Orem",
   "state_id": "UT",
   "lat": 40.2981,
   "lng": -111.6994,
   "population": 97100
 },
 {
   "id": 470,
   "city": "Sunrise",
   "state_id": "FL",
   "lat": 26.1547,
   "lng": -80.2997,
   "population": 96510
 },
 {
   "id": 471,
   "city": "Portsmouth",
   "state_id": "NH",
   "lat": 43.058,
   "lng": -70.7826,
   "population": 96146
 },
 {
   "id": 472,
   "city": "Arden-Arcade",
   "state_id": "CA",
   "lat": 38.6017,
   "lng": -121.3845,
   "population": 96076
 },
 {
   "id": 473,
   "city": "Lawrence",
   "state_id": "KS",
   "lat": 38.9597,
   "lng": -95.2642,
   "population": 96061
 },
 {
   "id": 474,
   "city": "Sandy",
   "state_id": "UT",
   "lat": 40.5709,
   "lng": -111.8506,
   "population": 95635
 },
 {
   "id": 475,
   "city": "Slidell",
   "state_id": "LA",
   "lat": 30.2887,
   "lng": -89.7828,
   "population": 95528
 },
 {
   "id": 476,
   "city": "Buckeye",
   "state_id": "AZ",
   "lat": 33.4314,
   "lng": -112.6429,
   "population": 95042
 },
 {
   "id": 477,
   "city": "Livonia",
   "state_id": "MI",
   "lat": 42.3972,
   "lng": -83.3733,
   "population": 94928
 },
 {
   "id": 478,
   "city": "Williamsburg",
   "state_id": "VA",
   "lat": 37.2693,
   "lng": -76.7076,
   "population": 94892
 },
 {
   "id": 479,
   "city": "Suffolk",
   "state_id": "VA",
   "lat": 36.6953,
   "lng": -76.6398,
   "population": 94856
 },
 {
   "id": 480,
   "city": "Compton",
   "state_id": "CA",
   "lat": 33.893,
   "lng": -118.2274,
   "population": 94822
 },
 {
   "id": 481,
   "city": "La Crosse",
   "state_id": "WI",
   "lat": 43.8241,
   "lng": -91.2268,
   "population": 94627
 },
 {
   "id": 482,
   "city": "Edmond",
   "state_id": "OK",
   "lat": 35.6689,
   "lng": -97.416,
   "population": 94503
 },
 {
   "id": 483,
   "city": "Carson",
   "state_id": "CA",
   "lat": 33.8374,
   "lng": -118.2559,
   "population": 94475
 },
 {
   "id": 484,
   "city": "San Marcos",
   "state_id": "CA",
   "lat": 33.135,
   "lng": -117.1743,
   "population": 94360
 },
 {
   "id": 485,
   "city": "Tracy",
   "state_id": "CA",
   "lat": 37.7269,
   "lng": -121.4523,
   "population": 94027
 },
 {
   "id": 486,
   "city": "Prescott Valley",
   "state_id": "AZ",
   "lat": 34.598,
   "lng": -112.3185,
   "population": 93923
 },
 {
   "id": 487,
   "city": "Middletown",
   "state_id": "OH",
   "lat": 39.5033,
   "lng": -84.3659,
   "population": 93870
 },
 {
   "id": 488,
   "city": "Fall River",
   "state_id": "MA",
   "lat": 41.7136,
   "lng": -71.1015,
   "population": 93638
 },
 {
   "id": 489,
   "city": "Santa Fe",
   "state_id": "NM",
   "lat": 35.6619,
   "lng": -105.9819,
   "population": 93165
 },
 {
   "id": 490,
   "city": "Plantation",
   "state_id": "FL",
   "lat": 26.1259,
   "lng": -80.2617,
   "population": 93130
 },
 {
   "id": 491,
   "city": "New Braunfels",
   "state_id": "TX",
   "lat": 29.6994,
   "lng": -98.1148,
   "population": 92993
 },
 {
   "id": 492,
   "city": "Roswell",
   "state_id": "GA",
   "lat": 34.0391,
   "lng": -84.3513,
   "population": 92770
 },
 {
   "id": 493,
   "city": "Conroe",
   "state_id": "TX",
   "lat": 30.3238,
   "lng": -95.4824,
   "population": 92475
 },
 {
   "id": 494,
   "city": "South Gate",
   "state_id": "CA",
   "lat": 33.9447,
   "lng": -118.1926,
   "population": 92381
 },
 {
   "id": 495,
   "city": "Santa Monica",
   "state_id": "CA",
   "lat": 34.0235,
   "lng": -118.481,
   "population": 92168
 },
 {
   "id": 496,
   "city": "Kirkland",
   "state_id": "WA",
   "lat": 47.697,
   "lng": -122.2057,
   "population": 92015
 },
 {
   "id": 497,
   "city": "Hoover",
   "state_id": "AL",
   "lat": 33.3763,
   "lng": -86.8068,
   "population": 91995
 },
 {
   "id": 498,
   "city": "O'Fallon",
   "state_id": "MO",
   "lat": 38.785,
   "lng": -90.7175,
   "population": 91825
 },
 {
   "id": 499,
   "city": "Alafaya",
   "state_id": "FL",
   "lat": 28.528,
   "lng": -81.1868,
   "population": 91531
 },
 {
   "id": 500,
   "city": "Palm Coast",
   "state_id": "FL",
   "lat": 29.5389,
   "lng": -81.2457,
   "population": 91082
 },
 {
   "id": 501,
   "city": "Norwalk",
   "state_id": "CT",
   "lat": 41.1144,
   "lng": -73.4215,
   "population": 91050
 },
 {
   "id": 502,
   "city": "Lawton",
   "state_id": "OK",
   "lat": 34.6175,
   "lng": -98.4202,
   "population": 91023
 },
 {
   "id": 503,
   "city": "Chino",
   "state_id": "CA",
   "lat": 33.9836,
   "lng": -117.6654,
   "population": 91008
 },
 {
   "id": 504,
   "city": "Mount Pleasant",
   "state_id": "SC",
   "lat": 32.8537,
   "lng": -79.8203,
   "population": 90945
 },
 {
   "id": 505,
   "city": "Manteca",
   "state_id": "CA",
   "lat": 37.7927,
   "lng": -121.2264,
   "population": 90678
 },
 {
   "id": 506,
   "city": "Westminster",
   "state_id": "CA",
   "lat": 33.7523,
   "lng": -117.9938,
   "population": 90638
 },
 {
   "id": 507,
   "city": "Florence",
   "state_id": "SC",
   "lat": 34.178,
   "lng": -79.7898,
   "population": 90419
 },
 {
   "id": 508,
   "city": "Joplin",
   "state_id": "MO",
   "lat": 37.0757,
   "lng": -94.5018,
   "population": 90384
 },
 {
   "id": 509,
   "city": "Germantown",
   "state_id": "MD",
   "lat": 39.1755,
   "lng": -77.2643,
   "population": 90210
 },
 {
   "id": 510,
   "city": "San Leandro",
   "state_id": "CA",
   "lat": 37.7074,
   "lng": -122.1599,
   "population": 89723
 },
 {
   "id": 511,
   "city": "Town 'n' Country",
   "state_id": "FL",
   "lat": 28.0106,
   "lng": -82.5763,
   "population": 89456
 },
 {
   "id": 512,
   "city": "Clifton",
   "state_id": "NJ",
   "lat": 40.863,
   "lng": -74.1575,
   "population": 89451
 },
 {
   "id": 513,
   "city": "Waukegan",
   "state_id": "IL",
   "lat": 42.3698,
   "lng": -87.8716,
   "population": 89435
 },
 {
   "id": 514,
   "city": "Bloomington",
   "state_id": "MN",
   "lat": 44.8306,
   "lng": -93.3151,
   "population": 89244
 },
 {
   "id": 515,
   "city": "Avondale",
   "state_id": "AZ",
   "lat": 33.3873,
   "lng": -112.3235,
   "population": 89214
 },
 {
   "id": 516,
   "city": "Atascocita",
   "state_id": "TX",
   "lat": 29.9777,
   "lng": -95.1953,
   "population": 89121
 },
 {
   "id": 517,
   "city": "Missoula",
   "state_id": "MT",
   "lat": 46.8751,
   "lng": -114.0214,
   "population": 88780
 },
 {
   "id": 518,
   "city": "Fort Myers",
   "state_id": "FL",
   "lat": 26.6194,
   "lng": -81.8302,
   "population": 88699
 },
 {
   "id": 519,
   "city": "Newton",
   "state_id": "MA",
   "lat": 42.3316,
   "lng": -71.2085,
   "population": 88453
 },
 {
   "id": 520,
   "city": "Lawrence",
   "state_id": "MA",
   "lat": 42.7002,
   "lng": -71.1626,
   "population": 88067
 },
 {
   "id": 521,
   "city": "Muncie",
   "state_id": "IN",
   "lat": 40.1989,
   "lng": -85.395,
   "population": 88061
 },
 {
   "id": 522,
   "city": "Rapid City",
   "state_id": "SD",
   "lat": 44.0716,
   "lng": -103.2204,
   "population": 87826
 },
 {
   "id": 523,
   "city": "Troy",
   "state_id": "MI",
   "lat": 42.5817,
   "lng": -83.1457,
   "population": 87170
 },
 {
   "id": 524,
   "city": "Livermore",
   "state_id": "CA",
   "lat": 37.6868,
   "lng": -121.7607,
   "population": 87154
 },
 {
   "id": 525,
   "city": "Citrus Heights",
   "state_id": "CA",
   "lat": 38.6948,
   "lng": -121.288,
   "population": 87127
 },
 {
   "id": 526,
   "city": "Hawthorne",
   "state_id": "CA",
   "lat": 33.9147,
   "lng": -118.3476,
   "population": 86978
 },
 {
   "id": 527,
   "city": "Winchester",
   "state_id": "VA",
   "lat": 39.1735,
   "lng": -78.1746,
   "population": 86813
 },
 {
   "id": 528,
   "city": "Springdale",
   "state_id": "AR",
   "lat": 36.1901,
   "lng": -94.1574,
   "population": 86705
 },
 {
   "id": 529,
   "city": "Whittier",
   "state_id": "CA",
   "lat": 33.9678,
   "lng": -118.0188,
   "population": 86459
 },
 {
   "id": 530,
   "city": "Deerfield Beach",
   "state_id": "FL",
   "lat": 26.305,
   "lng": -80.1277,
   "population": 86455
 },
 {
   "id": 531,
   "city": "Decatur",
   "state_id": "IL",
   "lat": 39.8557,
   "lng": -88.9342,
   "population": 86231
 },
 {
   "id": 532,
   "city": "San Ramon",
   "state_id": "CA",
   "lat": 37.7624,
   "lng": -121.9365,
   "population": 86119
 },
 {
   "id": 533,
   "city": "Vineland",
   "state_id": "NJ",
   "lat": 39.4653,
   "lng": -74.9981,
   "population": 86042
 },
 {
   "id": 534,
   "city": "Mission",
   "state_id": "TX",
   "lat": 26.2039,
   "lng": -98.3256,
   "population": 85755
 },
 {
   "id": 535,
   "city": "Auburn",
   "state_id": "WA",
   "lat": 47.3039,
   "lng": -122.2108,
   "population": 85623
 },
 {
   "id": 536,
   "city": "Lake Forest",
   "state_id": "CA",
   "lat": 33.6605,
   "lng": -117.6714,
   "population": 85583
 },
 {
   "id": 537,
   "city": "Newport Beach",
   "state_id": "CA",
   "lat": 33.6151,
   "lng": -117.8668,
   "population": 85159
 },
 {
   "id": 538,
   "city": "Melbourne",
   "state_id": "FL",
   "lat": 28.1086,
   "lng": -80.6627,
   "population": 84982
 },
 {
   "id": 539,
   "city": "Brooklyn Park",
   "state_id": "MN",
   "lat": 45.1112,
   "lng": -93.3505,
   "population": 84951
 },
 {
   "id": 540,
   "city": "Bryan",
   "state_id": "TX",
   "lat": 30.665,
   "lng": -96.3807,
   "population": 84820
 },
 {
   "id": 541,
   "city": "Westland",
   "state_id": "MI",
   "lat": 42.3192,
   "lng": -83.3805,
   "population": 84806
 },
 {
   "id": 542,
   "city": "Napa",
   "state_id": "CA",
   "lat": 38.2975,
   "lng": -122.301,
   "population": 84703
 },
 {
   "id": 543,
   "city": "Baytown",
   "state_id": "TX",
   "lat": 29.7587,
   "lng": -94.9671,
   "population": 84449
 },
 {
   "id": 544,
   "city": "Cicero",
   "state_id": "IL",
   "lat": 41.8445,
   "lng": -87.7593,
   "population": 84189
 },
 {
   "id": 545,
   "city": "Anderson",
   "state_id": "IN",
   "lat": 40.0891,
   "lng": -85.6892,
   "population": 83875
 },
 {
   "id": 546,
   "city": "Franklin",
   "state_id": "TN",
   "lat": 35.92,
   "lng": -86.8516,
   "population": 83630
 },
 {
   "id": 547,
   "city": "Farmington Hills",
   "state_id": "MI",
   "lat": 42.486,
   "lng": -83.3771,
   "population": 83562
 },
 {
   "id": 548,
   "city": "Buena Park",
   "state_id": "CA",
   "lat": 33.8572,
   "lng": -118.0046,
   "population": 83542
 },
 {
   "id": 549,
   "city": "Albany",
   "state_id": "GA",
   "lat": 31.5776,
   "lng": -84.1762,
   "population": 83447
 },
 {
   "id": 550,
   "city": "Pine Hills",
   "state_id": "FL",
   "lat": 28.5818,
   "lng": -81.4692,
   "population": 83221
 },
 {
   "id": 551,
   "city": "State College",
   "state_id": "PA",
   "lat": 40.7909,
   "lng": -77.8567,
   "population": 83170
 },
 {
   "id": 552,
   "city": "Redwood City",
   "state_id": "CA",
   "lat": 37.5025,
   "lng": -122.2253,
   "population": 83077
 },
 {
   "id": 553,
   "city": "Warwick",
   "state_id": "RI",
   "lat": 41.7062,
   "lng": -71.4334,
   "population": 82783
 },
 {
   "id": 554,
   "city": "Jackson",
   "state_id": "MI",
   "lat": 42.2431,
   "lng": -84.4038,
   "population": 82775
 },
 {
   "id": 555,
   "city": "Cranston",
   "state_id": "RI",
   "lat": 41.7658,
   "lng": -71.4858,
   "population": 82691
 },
 {
   "id": 556,
   "city": "Largo",
   "state_id": "FL",
   "lat": 27.9088,
   "lng": -82.7712,
   "population": 82541
 },
 {
   "id": 557,
   "city": "Miami Beach",
   "state_id": "FL",
   "lat": 25.8171,
   "lng": -80.1396,
   "population": 82400
 },
 {
   "id": 558,
   "city": "Alhambra",
   "state_id": "CA",
   "lat": 34.084,
   "lng": -118.1355,
   "population": 82295
 },
 {
   "id": 559,
   "city": "Johns Creek",
   "state_id": "GA",
   "lat": 34.0333,
   "lng": -84.2027,
   "population": 82230
 },
 {
   "id": 560,
   "city": "Mountain View",
   "state_id": "CA",
   "lat": 37.4001,
   "lng": -122.0796,
   "population": 82132
 },
 {
   "id": 561,
   "city": "Salisbury",
   "state_id": "MD",
   "lat": 38.3756,
   "lng": -75.5865,
   "population": 81921
 },
 {
   "id": 562,
   "city": "Morgantown",
   "state_id": "WV",
   "lat": 39.6383,
   "lng": -79.9464,
   "population": 81912
 },
 {
   "id": 563,
   "city": "Silver Spring",
   "state_id": "MD",
   "lat": 39.0028,
   "lng": -77.0207,
   "population": 81808
 },
 {
   "id": 564,
   "city": "Layton",
   "state_id": "UT",
   "lat": 41.077,
   "lng": -111.962,
   "population": 81726
 },
 {
   "id": 565,
   "city": "Springfield",
   "state_id": "OH",
   "lat": 39.93,
   "lng": -83.7959,
   "population": 81620
 },
 {
   "id": 566,
   "city": "Lakewood",
   "state_id": "CA",
   "lat": 33.8471,
   "lng": -118.1222,
   "population": 81499
 },
 {
   "id": 567,
   "city": "Florence",
   "state_id": "AL",
   "lat": 34.8303,
   "lng": -87.6655,
   "population": 81268
 },
 {
   "id": 568,
   "city": "Folsom",
   "state_id": "CA",
   "lat": 38.6668,
   "lng": -121.1422,
   "population": 81077
 },
 {
   "id": 569,
   "city": "Madera",
   "state_id": "CA",
   "lat": 36.963,
   "lng": -120.0778,
   "population": 80937
 },
 {
   "id": 570,
   "city": "New Rochelle",
   "state_id": "NY",
   "lat": 40.9304,
   "lng": -73.7836,
   "population": 80828
 },
 {
   "id": 571,
   "city": "Parma",
   "state_id": "OH",
   "lat": 41.3843,
   "lng": -81.7286,
   "population": 80587
 },
 {
   "id": 572,
   "city": "Terre Haute",
   "state_id": "IN",
   "lat": 39.466,
   "lng": -87.3751,
   "population": 80567
 },
 {
   "id": 573,
   "city": "Somerville",
   "state_id": "MA",
   "lat": 42.3908,
   "lng": -71.1014,
   "population": 80464
 },
 {
   "id": 574,
   "city": "Flagstaff",
   "state_id": "AZ",
   "lat": 35.1872,
   "lng": -111.6194,
   "population": 80167
 },
 {
   "id": 575,
   "city": "Boynton Beach",
   "state_id": "FL",
   "lat": 26.5281,
   "lng": -80.0811,
   "population": 80068
 },
 {
   "id": 576,
   "city": "Homestead",
   "state_id": "FL",
   "lat": 25.4665,
   "lng": -80.4472,
   "population": 79996
 },
 {
   "id": 577,
   "city": "Newark",
   "state_id": "OH",
   "lat": 40.0706,
   "lng": -82.425,
   "population": 79959
 },
 {
   "id": 578,
   "city": "Plymouth",
   "state_id": "MN",
   "lat": 45.0225,
   "lng": -93.4617,
   "population": 79918
 },
 {
   "id": 579,
   "city": "Anniston",
   "state_id": "AL",
   "lat": 33.6712,
   "lng": -85.8135,
   "population": 79717
 },
 {
   "id": 580,
   "city": "Texarkana",
   "state_id": "TX",
   "lat": 33.45,
   "lng": -94.0847,
   "population": 79570
 },
 {
   "id": 581,
   "city": "Tustin",
   "state_id": "CA",
   "lat": 33.7311,
   "lng": -117.8107,
   "population": 79514
 },
 {
   "id": 582,
   "city": "Pharr",
   "state_id": "TX",
   "lat": 26.1685,
   "lng": -98.1904,
   "population": 79434
 },
 {
   "id": 583,
   "city": "Port Huron",
   "state_id": "MI",
   "lat": 42.9821,
   "lng": -82.4388,
   "population": 79363
 },
 {
   "id": 584,
   "city": "Turlock",
   "state_id": "CA",
   "lat": 37.5053,
   "lng": -120.8588,
   "population": 79301
 },
 {
   "id": 585,
   "city": "Rancho Cordova",
   "state_id": "CA",
   "lat": 38.5737,
   "lng": -121.2527,
   "population": 79128
 },
 {
   "id": 586,
   "city": "The Villages",
   "state_id": "FL",
   "lat": 28.9034,
   "lng": -81.9887,
   "population": 79108
 },
 {
   "id": 587,
   "city": "Milpitas",
   "state_id": "CA",
   "lat": 37.4336,
   "lng": -121.8921,
   "population": 79092
 },
 {
   "id": 588,
   "city": "Perris",
   "state_id": "CA",
   "lat": 33.7898,
   "lng": -117.2233,
   "population": 78881
 },
 {
   "id": 589,
   "city": "Upland",
   "state_id": "CA",
   "lat": 34.1178,
   "lng": -117.6604,
   "population": 78847
 },
 {
   "id": 590,
   "city": "Alton",
   "state_id": "IL",
   "lat": 38.9037,
   "lng": -90.152,
   "population": 78729
 },
 {
   "id": 591,
   "city": "Pleasanton",
   "state_id": "CA",
   "lat": 37.6663,
   "lng": -121.8805,
   "population": 78691
 },
 {
   "id": 592,
   "city": "Kendall",
   "state_id": "FL",
   "lat": 25.6697,
   "lng": -80.3556,
   "population": 78402
 },
 {
   "id": 593,
   "city": "Jonesboro",
   "state_id": "AR",
   "lat": 35.8212,
   "lng": -90.6791,
   "population": 78379
 },
 {
   "id": 594,
   "city": "Bellflower",
   "state_id": "CA",
   "lat": 33.888,
   "lng": -118.1271,
   "population": 78352
 },
 {
   "id": 595,
   "city": "Battle Creek",
   "state_id": "MI",
   "lat": 42.2985,
   "lng": -85.2296,
   "population": 78338
 },
 {
   "id": 596,
   "city": "Chino Hills",
   "state_id": "CA",
   "lat": 33.9508,
   "lng": -117.7254,
   "population": 78223
 },
 {
   "id": 597,
   "city": "Cheyenne",
   "state_id": "WY",
   "lat": 41.135,
   "lng": -104.7902,
   "population": 78204
 },
 {
   "id": 598,
   "city": "Lebanon",
   "state_id": "PA",
   "lat": 40.3412,
   "lng": -76.4228,
   "population": 78147
 },
 {
   "id": 599,
   "city": "Carmichael",
   "state_id": "CA",
   "lat": 38.6318,
   "lng": -121.3263,
   "population": 78144
 },
 {
   "id": 600,
   "city": "South Jordan",
   "state_id": "UT",
   "lat": 40.557,
   "lng": -111.9784,
   "population": 78118
 },
 {
   "id": 601,
   "city": "Davis",
   "state_id": "CA",
   "lat": 38.5553,
   "lng": -121.737,
   "population": 77874
 },
 {
   "id": 602,
   "city": "Elizabethtown",
   "state_id": "KY",
   "lat": 37.7031,
   "lng": -85.8773,
   "population": 77770
 },
 {
   "id": 603,
   "city": "Schaumburg",
   "state_id": "IL",
   "lat": 42.0308,
   "lng": -88.0838,
   "population": 77571
 },
 {
   "id": 604,
   "city": "Alameda",
   "state_id": "CA",
   "lat": 37.7668,
   "lng": -122.267,
   "population": 77565
 },
 {
   "id": 605,
   "city": "Hammond",
   "state_id": "IN",
   "lat": 41.6168,
   "lng": -87.4909,
   "population": 77390
 },
 {
   "id": 606,
   "city": "Pasco",
   "state_id": "WA",
   "lat": 46.2506,
   "lng": -119.1305,
   "population": 77274
 },
 {
   "id": 607,
   "city": "Evanston",
   "state_id": "IL",
   "lat": 42.0464,
   "lng": -87.6943,
   "population": 77181
 },
 {
   "id": 608,
   "city": "Lehi",
   "state_id": "UT",
   "lat": 40.4136,
   "lng": -111.8725,
   "population": 77110
 },
 {
   "id": 609,
   "city": "Alexandria",
   "state_id": "LA",
   "lat": 31.2923,
   "lng": -92.4702,
   "population": 77109
 },
 {
   "id": 610,
   "city": "North Port",
   "state_id": "FL",
   "lat": 27.0576,
   "lng": -82.1977,
   "population": 76975
 },
 {
   "id": 611,
   "city": "Arlington Heights",
   "state_id": "IL",
   "lat": 42.0955,
   "lng": -87.9826,
   "population": 76794
 },
 {
   "id": 612,
   "city": "Camarillo",
   "state_id": "CA",
   "lat": 34.223,
   "lng": -119.0321,
   "population": 76748
 },
 {
   "id": 613,
   "city": "Wyoming",
   "state_id": "MI",
   "lat": 42.8908,
   "lng": -85.7066,
   "population": 76732
 },
 {
   "id": 614,
   "city": "Flower Mound",
   "state_id": "TX",
   "lat": 33.0343,
   "lng": -97.1146,
   "population": 76630
 },
 {
   "id": 615,
   "city": "Bethlehem",
   "state_id": "PA",
   "lat": 40.6266,
   "lng": -75.3679,
   "population": 76555
 },
 {
   "id": 616,
   "city": "Hattiesburg",
   "state_id": "MS",
   "lat": 31.3074,
   "lng": -89.317,
   "population": 76501
 },
 {
   "id": 617,
   "city": "Loveland",
   "state_id": "CO",
   "lat": 40.4166,
   "lng": -105.0623,
   "population": 76500
 },
 {
   "id": 618,
   "city": "Pittsburg",
   "state_id": "CA",
   "lat": 38.0182,
   "lng": -121.8965,
   "population": 76419
 },
 {
   "id": 619,
   "city": "Cedar Park",
   "state_id": "TX",
   "lat": 30.5105,
   "lng": -97.8197,
   "population": 76344
 },
 {
   "id": 620,
   "city": "Wenatchee",
   "state_id": "WA",
   "lat": 47.436,
   "lng": -120.3295,
   "population": 76152
 },
 {
   "id": 621,
   "city": "Southfield",
   "state_id": "MI",
   "lat": 42.4765,
   "lng": -83.2605,
   "population": 76107
 },
 {
   "id": 622,
   "city": "Rochester Hills",
   "state_id": "MI",
   "lat": 42.6645,
   "lng": -83.1563,
   "population": 76041
 },
 {
   "id": 623,
   "city": "Hammond",
   "state_id": "LA",
   "lat": 30.5061,
   "lng": -90.4563,
   "population": 76032
 },
 {
   "id": 624,
   "city": "Valdosta",
   "state_id": "GA",
   "lat": 30.8502,
   "lng": -83.2788,
   "population": 75919
 },
 {
   "id": 625,
   "city": "Owensboro",
   "state_id": "KY",
   "lat": 37.7575,
   "lng": -87.1172,
   "population": 75644
 },
 {
   "id": 626,
   "city": "Apple Valley",
   "state_id": "CA",
   "lat": 34.5352,
   "lng": -117.2109,
   "population": 75603
 },
 {
   "id": 627,
   "city": "Woodbury",
   "state_id": "MN",
   "lat": 44.9057,
   "lng": -92.923,
   "population": 75549
 },
 {
   "id": 628,
   "city": "Pawtucket",
   "state_id": "RI",
   "lat": 41.8744,
   "lng": -71.3743,
   "population": 75176
 },
 {
   "id": 629,
   "city": "St. Joseph",
   "state_id": "MO",
   "lat": 39.7598,
   "lng": -94.821,
   "population": 75033
 },
 {
   "id": 630,
   "city": "Doral",
   "state_id": "FL",
   "lat": 25.8152,
   "lng": -80.3565,
   "population": 74891
 },
 {
   "id": 631,
   "city": "Dover",
   "state_id": "NH",
   "lat": 43.1887,
   "lng": -70.8845,
   "population": 74554
 },
 {
   "id": 632,
   "city": "Missouri City",
   "state_id": "TX",
   "lat": 29.563,
   "lng": -95.5365,
   "population": 74517
 },
 {
   "id": 633,
   "city": "Saratoga Springs",
   "state_id": "NY",
   "lat": 43.0674,
   "lng": -73.7775,
   "population": 74339
 },
 {
   "id": 634,
   "city": "Pocatello",
   "state_id": "ID",
   "lat": 42.8724,
   "lng": -112.4647,
   "population": 74284
 },
 {
   "id": 635,
   "city": "Oshkosh",
   "state_id": "WI",
   "lat": 44.0227,
   "lng": -88.5619,
   "population": 74251
 },
 {
   "id": 636,
   "city": "New Britain",
   "state_id": "CT",
   "lat": 41.6759,
   "lng": -72.7862,
   "population": 74212
 },
 {
   "id": 637,
   "city": "Castle Rock",
   "state_id": "CO",
   "lat": 39.3763,
   "lng": -104.8535,
   "population": 74065
 },
 {
   "id": 638,
   "city": "Lauderhill",
   "state_id": "FL",
   "lat": 26.1605,
   "lng": -80.2241,
   "population": 73987
 },
 {
   "id": 639,
   "city": "Broomfield",
   "state_id": "CO",
   "lat": 39.9542,
   "lng": -105.0526,
   "population": 73946
 },
 {
   "id": 640,
   "city": "Dale City",
   "state_id": "VA",
   "lat": 38.6473,
   "lng": -77.3459,
   "population": 73928
 },
 {
   "id": 641,
   "city": "Bolingbrook",
   "state_id": "IL",
   "lat": 41.6901,
   "lng": -88.1021,
   "population": 73755
 },
 {
   "id": 642,
   "city": "Redmond",
   "state_id": "WA",
   "lat": 47.6763,
   "lng": -122.1169,
   "population": 73728
 },
 {
   "id": 643,
   "city": "Mansfield",
   "state_id": "TX",
   "lat": 32.569,
   "lng": -97.1213,
   "population": 73680
 },
 {
   "id": 644,
   "city": "Ellicott City",
   "state_id": "MD",
   "lat": 39.2774,
   "lng": -76.8345,
   "population": 73589
 },
 {
   "id": 645,
   "city": "Sheboygan",
   "state_id": "WI",
   "lat": 43.7403,
   "lng": -87.7316,
   "population": 73531
 },
 {
   "id": 646,
   "city": "Mansfield",
   "state_id": "OH",
   "lat": 40.7656,
   "lng": -82.5275,
   "population": 73448
 },
 {
   "id": 647,
   "city": "Glens Falls",
   "state_id": "NY",
   "lat": 43.3109,
   "lng": -73.6458,
   "population": 73424
 },
 {
   "id": 648,
   "city": "Daytona Beach",
   "state_id": "FL",
   "lat": 29.1995,
   "lng": -81.0982,
   "population": 73329
 },
 {
   "id": 649,
   "city": "Lodi",
   "state_id": "CA",
   "lat": 38.1218,
   "lng": -121.2932,
   "population": 73239
 },
 {
   "id": 650,
   "city": "Redlands",
   "state_id": "CA",
   "lat": 34.0512,
   "lng": -117.1712,
   "population": 73234
 },
 {
   "id": 651,
   "city": "Harrisonburg",
   "state_id": "VA",
   "lat": 38.4362,
   "lng": -78.8735,
   "population": 73160
 },
 {
   "id": 652,
   "city": "Dothan",
   "state_id": "AL",
   "lat": 31.2336,
   "lng": -85.407,
   "population": 73037
 },
 {
   "id": 653,
   "city": "Cleveland",
   "state_id": "TN",
   "lat": 35.1817,
   "lng": -84.8707,
   "population": 72870
 },
 {
   "id": 654,
   "city": "Jackson",
   "state_id": "TN",
   "lat": 35.6538,
   "lng": -88.8354,
   "population": 72836
 },
 {
   "id": 655,
   "city": "Mount Vernon",
   "state_id": "NY",
   "lat": 40.9136,
   "lng": -73.8291,
   "population": 72817
 },
 {
   "id": 656,
   "city": "Centreville",
   "state_id": "VA",
   "lat": 38.839,
   "lng": -77.4389,
   "population": 72680
 },
 {
   "id": 657,
   "city": "Altoona",
   "state_id": "PA",
   "lat": 40.5082,
   "lng": -78.4007,
   "population": 72348
 },
 {
   "id": 658,
   "city": "Framingham",
   "state_id": "MA",
   "lat": 42.3085,
   "lng": -71.4368,
   "population": 71805
 },
 {
   "id": 659,
   "city": "Camden",
   "state_id": "NJ",
   "lat": 39.9361,
   "lng": -75.1073,
   "population": 71799
 },
 {
   "id": 660,
   "city": "Georgetown",
   "state_id": "TX",
   "lat": 30.666,
   "lng": -97.6966,
   "population": 71788
 },
 {
   "id": 661,
   "city": "Baldwin Park",
   "state_id": "CA",
   "lat": 34.0829,
   "lng": -117.9722,
   "population": 71692
 },
 {
   "id": 662,
   "city": "Rocklin",
   "state_id": "CA",
   "lat": 38.8075,
   "lng": -121.2489,
   "population": 71676
 },
 {
   "id": 663,
   "city": "Porterville",
   "state_id": "CA",
   "lat": 36.0643,
   "lng": -119.0338,
   "population": 71669
 },
 {
   "id": 664,
   "city": "Tamarac",
   "state_id": "FL",
   "lat": 26.2056,
   "lng": -80.2539,
   "population": 71578
 },
 {
   "id": 665,
   "city": "Glen Burnie",
   "state_id": "MD",
   "lat": 39.156,
   "lng": -76.6071,
   "population": 71427
 },
 {
   "id": 666,
   "city": "Blacksburg",
   "state_id": "VA",
   "lat": 37.23,
   "lng": -80.4279,
   "population": 71277
 },
 {
   "id": 667,
   "city": "Wausau",
   "state_id": "WI",
   "lat": 44.962,
   "lng": -89.6459,
   "population": 71236
 },
 {
   "id": 668,
   "city": "Sumter",
   "state_id": "SC",
   "lat": 33.9392,
   "lng": -80.393,
   "population": 71234
 },
 {
   "id": 669,
   "city": "Janesville",
   "state_id": "WI",
   "lat": 42.6854,
   "lng": -89.0135,
   "population": 71202
 },
 {
   "id": 670,
   "city": "Brunswick",
   "state_id": "GA",
   "lat": 31.1449,
   "lng": -81.4746,
   "population": 71160
 },
 {
   "id": 671,
   "city": "Dublin",
   "state_id": "CA",
   "lat": 37.7161,
   "lng": -121.8963,
   "population": 71068
 },
 {
   "id": 672,
   "city": "Wilmington",
   "state_id": "DE",
   "lat": 39.7415,
   "lng": -75.5416,
   "population": 71034
 },
 {
   "id": 673,
   "city": "Waukesha",
   "state_id": "WI",
   "lat": 43.0087,
   "lng": -88.2464,
   "population": 70945
 },
 {
   "id": 674,
   "city": "Fairbanks",
   "state_id": "AK",
   "lat": 64.8353,
   "lng": -147.6533,
   "population": 70817
 },
 {
   "id": 675,
   "city": "Lakeville",
   "state_id": "MN",
   "lat": 44.6774,
   "lng": -93.252,
   "population": 70696
 },
 {
   "id": 676,
   "city": "St. Charles",
   "state_id": "MO",
   "lat": 38.7954,
   "lng": -90.5157,
   "population": 70687
 },
 {
   "id": 677,
   "city": "Redondo Beach",
   "state_id": "CA",
   "lat": 33.8577,
   "lng": -118.3765,
   "population": 70620
 },
 {
   "id": 678,
   "city": "Spring Hill",
   "state_id": "TN",
   "lat": 35.7437,
   "lng": -86.9116,
   "population": 70531
 },
 {
   "id": 679,
   "city": "Bayonne",
   "state_id": "NJ",
   "lat": 40.6668,
   "lng": -74.1158,
   "population": 70497
 },
 {
   "id": 680,
   "city": "Grand Forks",
   "state_id": "ND",
   "lat": 47.9214,
   "lng": -97.0884,
   "population": 70475
 },
 {
   "id": 681,
   "city": "Noblesville",
   "state_id": "IN",
   "lat": 40.0355,
   "lng": -86.0042,
   "population": 70442
 },
 {
   "id": 682,
   "city": "El Paso de Robles",
   "state_id": "CA",
   "lat": 35.6394,
   "lng": -120.656,
   "population": 70128
 },
 {
   "id": 683,
   "city": "North Richland Hills",
   "state_id": "TX",
   "lat": 32.8604,
   "lng": -97.218,
   "population": 70114
 },
 {
   "id": 684,
   "city": "Maple Grove",
   "state_id": "MN",
   "lat": 45.1089,
   "lng": -93.4626,
   "population": 70110
 },
 {
   "id": 685,
   "city": "Passaic",
   "state_id": "NJ",
   "lat": 40.8574,
   "lng": -74.1282,
   "population": 70048
 },
 {
   "id": 686,
   "city": "Blaine",
   "state_id": "MN",
   "lat": 45.1696,
   "lng": -93.2077,
   "population": 70047
 },
 {
   "id": 687,
   "city": "Lake Elsinore",
   "state_id": "CA",
   "lat": 33.6847,
   "lng": -117.3344,
   "population": 69993
 },
 {
   "id": 688,
   "city": "Rogers",
   "state_id": "AR",
   "lat": 36.317,
   "lng": -94.1531,
   "population": 69961
 },
 {
   "id": 689,
   "city": "Casas Adobes",
   "state_id": "AZ",
   "lat": 32.3423,
   "lng": -111.0113,
   "population": 69917
 },
 {
   "id": 690,
   "city": "Sherman",
   "state_id": "TX",
   "lat": 33.6273,
   "lng": -96.6221,
   "population": 69880
 },
 {
   "id": 691,
   "city": "Walnut Creek",
   "state_id": "CA",
   "lat": 37.9024,
   "lng": -122.0399,
   "population": 69809
 },
 {
   "id": 692,
   "city": "Conway",
   "state_id": "AR",
   "lat": 35.0753,
   "lng": -92.4692,
   "population": 69651
 },
 {
   "id": 693,
   "city": "Eastvale",
   "state_id": "CA",
   "lat": 33.9617,
   "lng": -117.5803,
   "population": 69594
 },
 {
   "id": 694,
   "city": "Union City",
   "state_id": "CA",
   "lat": 37.6032,
   "lng": -122.0181,
   "population": 69502
 },
 {
   "id": 695,
   "city": "Michigan City",
   "state_id": "IN",
   "lat": 41.7092,
   "lng": -86.869,
   "population": 69459
 },
 {
   "id": 696,
   "city": "Poinciana",
   "state_id": "FL",
   "lat": 28.1217,
   "lng": -81.4821,
   "population": 69311
 },
 {
   "id": 697,
   "city": "Tulare",
   "state_id": "CA",
   "lat": 36.1995,
   "lng": -119.34,
   "population": 69261
 },
 {
   "id": 698,
   "city": "Gary",
   "state_id": "IN",
   "lat": 41.5905,
   "lng": -87.3473,
   "population": 69136
 },
 {
   "id": 699,
   "city": "Gaithersburg",
   "state_id": "MD",
   "lat": 39.1346,
   "lng": -77.2131,
   "population": 69016
 },
 {
   "id": 700,
   "city": "East Orange",
   "state_id": "NJ",
   "lat": 40.7651,
   "lng": -74.2117,
   "population": 68879
 },
 {
   "id": 701,
   "city": "Wesley Chapel",
   "state_id": "FL",
   "lat": 28.2106,
   "lng": -82.3238,
   "population": 68814
 },
 {
   "id": 702,
   "city": "West Des Moines",
   "state_id": "IA",
   "lat": 41.5521,
   "lng": -93.7806,
   "population": 68744
 },
 {
   "id": 703,
   "city": "Dalton",
   "state_id": "GA",
   "lat": 34.769,
   "lng": -84.972,
   "population": 68614
 },
 {
   "id": 704,
   "city": "Dubuque",
   "state_id": "IA",
   "lat": 42.5002,
   "lng": -90.707,
   "population": 68601
 },
 {
   "id": 705,
   "city": "Schenectady",
   "state_id": "NY",
   "lat": 42.8025,
   "lng": -73.9275,
   "population": 68476
 },
 {
   "id": 706,
   "city": "Ankeny",
   "state_id": "IA",
   "lat": 41.7288,
   "lng": -93.6031,
   "population": 68392
 },
 {
   "id": 707,
   "city": "Maricopa",
   "state_id": "AZ",
   "lat": 33.0408,
   "lng": -112.0011,
   "population": 68376
 },
 {
   "id": 708,
   "city": "Eagan",
   "state_id": "MN",
   "lat": 44.817,
   "lng": -93.1638,
   "population": 68262
 },
 {
   "id": 709,
   "city": "Hanford",
   "state_id": "CA",
   "lat": 36.3274,
   "lng": -119.6549,
   "population": 68122
 },
 {
   "id": 710,
   "city": "Bristol",
   "state_id": "TN",
   "lat": 36.5572,
   "lng": -82.2154,
   "population": 68083
 },
 {
   "id": 711,
   "city": "Yorba Linda",
   "state_id": "CA",
   "lat": 33.889,
   "lng": -117.7714,
   "population": 68035
 },
 {
   "id": 712,
   "city": "Weston",
   "state_id": "FL",
   "lat": 26.1006,
   "lng": -80.4054,
   "population": 68029
 },
 {
   "id": 713,
   "city": "Watsonville",
   "state_id": "CA",
   "lat": 36.9206,
   "lng": -121.7708,
   "population": 68020
 },
 {
   "id": 714,
   "city": "Palo Alto",
   "state_id": "CA",
   "lat": 37.3905,
   "lng": -122.1468,
   "population": 67901
 },
 {
   "id": 715,
   "city": "South Hill",
   "state_id": "WA",
   "lat": 47.1198,
   "lng": -122.2853,
   "population": 67835
 },
 {
   "id": 716,
   "city": "Shawnee",
   "state_id": "KS",
   "lat": 39.0158,
   "lng": -94.8076,
   "population": 67671
 },
 {
   "id": 717,
   "city": "San Marcos",
   "state_id": "TX",
   "lat": 29.8734,
   "lng": -97.9356,
   "population": 67491
 },
 {
   "id": 718,
   "city": "Great Falls",
   "state_id": "MT",
   "lat": 47.5022,
   "lng": -111.2996,
   "population": 67300
 },
 {
   "id": 719,
   "city": "Haverhill",
   "state_id": "MA",
   "lat": 42.7838,
   "lng": -71.0871,
   "population": 67273
 },
 {
   "id": 720,
   "city": "Union City",
   "state_id": "NJ",
   "lat": 40.7675,
   "lng": -74.0323,
   "population": 67258
 },
 {
   "id": 721,
   "city": "Palatine",
   "state_id": "IL",
   "lat": 42.118,
   "lng": -88.043,
   "population": 67223
 },
 {
   "id": 722,
   "city": "Longview",
   "state_id": "WA",
   "lat": 46.1461,
   "lng": -122.963,
   "population": 67203
 },
 {
   "id": 723,
   "city": "Corvallis",
   "state_id": "OR",
   "lat": 44.5698,
   "lng": -123.2779,
   "population": 67187
 },
 {
   "id": 724,
   "city": "Rockville",
   "state_id": "MD",
   "lat": 39.0834,
   "lng": -77.1553,
   "population": 67142
 },
 {
   "id": 725,
   "city": "Skokie",
   "state_id": "IL",
   "lat": 42.036,
   "lng": -87.74,
   "population": 67076
 },
 {
   "id": 726,
   "city": "Mount Vernon",
   "state_id": "WA",
   "lat": 48.4203,
   "lng": -122.3115,
   "population": 66896
 },
 {
   "id": 727,
   "city": "Casper",
   "state_id": "WY",
   "lat": 42.842,
   "lng": -106.3208,
   "population": 66876
 },
 {
   "id": 728,
   "city": "Ames",
   "state_id": "IA",
   "lat": 42.0256,
   "lng": -93.6217,
   "population": 66729
 },
 {
   "id": 729,
   "city": "Delray Beach",
   "state_id": "FL",
   "lat": 26.455,
   "lng": -80.0905,
   "population": 66646
 },
 {
   "id": 730,
   "city": "Sammamish",
   "state_id": "WA",
   "lat": 47.6017,
   "lng": -122.0416,
   "population": 66586
 },
 {
   "id": 731,
   "city": "Lynwood",
   "state_id": "CA",
   "lat": 33.924,
   "lng": -118.2016,
   "population": 66346
 },